locality,state,location,lon,lat
Eufaula,AK,"Eufaula, AK",-85.1454876,31.8912717
Libbysville,AK,"Libbysville, AK",NA,NA
Sitka,AK,"Sitka, AK",-135.33,57.0530556
Auburn,AL,"Auburn, AL",-85.48078249999999,32.6098566
Birmingham,AL,"Birmingham, AL",-86.80248999999999,33.5206608
Florence,AL,"Florence, AL",-87.677251,34.79981
Gainesville,AL,"Gainesville, AL",-88.158914,32.8209639
Greensboro,AL,"Greensboro, AL",-87.59583959999999,32.7045753
Huntsville,AL,"Huntsville, AL",-86.5861037,34.7303688
La Grange,AL,"La Grange, AL",-85.0322444,33.0362218
Marion,AL,"Marion, AL",-87.3191655,32.6323536
Mobile,AL,"Mobile, AL",-88.0398912,30.6953657
Montgomery,AL,"Montgomery, AL",-86.2999689,32.3668052
Selma,AL,"Selma, AL",-87.02110069999999,32.4073589
Talladaga,AL,"Talladaga, AL",-86.1058048,33.4359416
Talladega,AL,"Talladega, AL",-86.1058048,33.4359416
Tuscaloosa,AL,"Tuscaloosa, AL",-87.56917349999999,33.2098407
Eagletown,AR,"Eagletown, AR",-94.5749348,34.0342782
Eldorado,AR,"Eldorado, AR",-92.6662674,33.20763
Fayetteville,AR,"Fayetteville, AR",-94.1574263,36.0625795
Fort Smith,AR,"Fort Smith, AR",-94.39854749999999,35.3859242
Little Rock,AR,"Little Rock, AR",-92.28959479999999,34.7464809
Van Buren,AR,"Van Buren, AR",-94.34826799999999,35.436756
NA,AR,"NA, AR",-91.8318334,35.20105
Arivaca,AZ,"Arivaca, AZ",-111.3314522,31.5773351
Camp McDowell,AZ,"Camp McDowell, AZ",-111.6925465,33.7160203
Ft Grant,AZ,"Ft Grant, AZ",-109.943428,32.6227492
Ft. Bowie,AZ,"Ft. Bowie, AZ",-109.452661,32.156556
Ft. Buchanan,AZ,"Ft. Buchanan, AZ",-110.8628859,32.2995648
Ft. Crittenden,AZ,"Ft. Crittenden, AZ",-110.69535,31.6660113
Ft. Lowell,AZ,"Ft. Lowell, AZ",-110.874732,32.2596871
Ft. Mojave,AZ,"Ft. Mojave, AZ",-114.5892703,35.0224848
Ft. Whipple,AZ,"Ft. Whipple, AZ",-112.4552462,34.5527787
St. Joseph,AZ,"St. Joseph, AZ",-112.0793603,33.4819191
Tucson,AZ,"Tucson, AZ",-110.926479,32.2217429
NA,AZ,"NA, AZ",-111.0937311,34.0489281
Alameda,CA,"Alameda, CA",-122.2416355,37.7652065
Alvarado,CA,"Alvarado, CA",-96.99618129999999,48.19414769999999
Anaheim,CA,"Anaheim, CA",-117.9145036,33.8352932
Angel Island,CA,"Angel Island, CA",-122.4325682,37.860909
Antioch,CA,"Antioch, CA",-121.805789,38.0049214
Arcata,CA,"Arcata, CA",-124.0828396,40.8665166
Auburn,CA,"Auburn, CA",-121.0768901,38.8965654
Bend City,CA,"Bend City, CA",-121.5041491,38.6595769
Benicia,CA,"Benicia, CA",-122.1585777,38.049365
Benicio,CA,"Benicio, CA",-122.1585777,38.049365
Berkeley,CA,"Berkeley, CA",-122.272747,37.8715926
Bodega,CA,"Bodega, CA",-122.9738259,38.3454326
Camp Gaston,CA,"Camp Gaston, CA",-120.889834,39.38855470000001
Can Carlos,CA,"Can Carlos, CA",-122.2605222,37.5071591
Cold Spring,CA,"Cold Spring, CA",-120.053241,38.162418
Cold Springs,CA,"Cold Springs, CA",-120.053241,38.162418
Colorna,CA,"Colorna, CA",-117.5664384,33.8752935
Columbia,CA,"Columbia, CA",-120.4013061,38.0363119
Colusa,CA,"Colusa, CA",-122.0094175,39.2143343
Cooperpolis,CA,"Cooperpolis, CA",-120.6418716,37.9810358
Crescent City,CA,"Crescent City, CA",-124.2025913,41.7557501
Davies,CA,"Davies, CA",-121.7405167,38.5449065
Dolores,CA,"Dolores, CA",-118.2264595,33.8330727
Downieville,CA,"Downieville, CA",-120.8276966,39.5595198
Dutch Flat,CA,"Dutch Flat, CA",-120.8378103,39.2059586
El Dorado,CA,"El Dorado, CA",-120.8412807,38.6801437
Eureka,CA,"Eureka, CA",-124.1636729,40.8020712
Fresno,CA,"Fresno, CA",-119.7725868,36.7468422
Ft. Yuma,CA,"Ft. Yuma, CA",-114.6341196,32.7583794
Grass Valley,CA,"Grass Valley, CA",-121.0610606,39.2190608
Hawkin's Bar,CA,"Hawkin's Bar, CA",-123.5228235,40.8701359
Heldsburg,CA,"Heldsburg, CA",-122.8691609,38.6104658
Jackson,CA,"Jackson, CA",-120.7741018,38.3488023
Jenny Lind,CA,"Jenny Lind, CA",-120.8699371,38.0949216
Knight's Ferry,CA,"Knight's Ferry, CA",-120.6721494,37.8196499
Lafayette,CA,"Lafayette, CA",-122.1180201,37.8857582
Locklord,CA,"Locklord, CA",-121.5014287,38.5780494
Los Angeles,CA,"Los Angeles, CA",-118.2436849,34.0522342
Marysville,CA,"Marysville, CA",-121.5913547,39.1457253
Maryville,CA,"Maryville, CA",-121.5913547,39.1457253
Mattole,CA,"Mattole, CA",-124.3539389,40.3023576
Mendocino,CA,"Mendocino, CA",-123.79945910000001,39.3076744
Merkleville?,CA,"Merkleville?, CA",-119.7796826,38.6937227
Mokelumne Hill,CA,"Mokelumne Hill, CA",-120.7063219,38.3004709
Monterey,CA,"Monterey, CA",-121.8946761,36.6002378
napa,CA,"napa, CA",-122.286865,38.2975381
Napa,CA,"Napa, CA",-122.286865,38.2975381
Napa City,CA,"Napa City, CA",-122.286865,38.2975381
Nevada City,CA,"Nevada City, CA",-121.0160594,39.2615606
North San Juan,CA,"North San Juan, CA",-121.1038655,39.3700973
Oakland,CA,"Oakland, CA",-122.2711137,37.8043637
Orange,CA,"Orange, CA",-117.8531119,33.7877944
Oroville,CA,"Oroville, CA",-121.556359,39.5137752
Orville,CA,"Orville, CA",-121.556359,39.5137752
Pacheco,CA,"Pacheco, CA",-122.0752413,37.9835331
Petaluma,CA,"Petaluma, CA",-122.6366524,38.232417
Pine Grove,CA,"Pine Grove, CA",-120.6591314,38.4133517
Placerville,CA,"Placerville, CA",-120.798546,38.7296252
Red Bluff,CA,"Red Bluff, CA",-122.2358302,40.1784886
Redwood City,CA,"Redwood City, CA",-122.2363548,37.48521520000001
Rio Vista,CA,"Rio Vista, CA",-121.6913439,38.1557502
Sacramento,CA,"Sacramento, CA",-121.4943996,38.5815719
San Andreas,CA,"San Andreas, CA",-120.6804872,38.1960298
San Antonio,CA,"San Antonio, CA",-122.59028,38.18389
San Bernardino,CA,"San Bernardino, CA",-117.2897652,34.1083449
San Buenaventura,CA,"San Buenaventura, CA",-119.2290316,34.274646
San Diego,CA,"San Diego, CA",-117.1610838,32.715738
San Fernando,CA,"San Fernando, CA",-118.4389719,34.2819461
San Francisco,CA,"San Francisco, CA",-122.4194155,37.7749295
San Jose,CA,"San Jose, CA",-121.8863286,37.3382082
San Juan Bautista,CA,"San Juan Bautista, CA",-121.5379974,36.8455108
San Juan Capistrano,CA,"San Juan Capistrano, CA",-117.6625509,33.5016932
San Lorenzo,CA,"San Lorenzo, CA",-122.1244088,37.6810422
San Luis Obispo,CA,"San Luis Obispo, CA",-120.6596156,35.2827524
San Luis Rey,CA,"San Luis Rey, CA",-117.3322661,33.2319758
San Quentin,CA,"San Quentin, CA",-122.4898472,37.9386291
San Rafael,CA,"San Rafael, CA",-122.5310874,37.9735346
San Raphael,CA,"San Raphael, CA",-122.5310874,37.9735346
San Solano,CA,"San Solano, CA",-122.4559599,38.2937679
Santa Barbara,CA,"Santa Barbara, CA",-119.6981901,34.4208305
Santa Clara,CA,"Santa Clara, CA",-121.9552356,37.3541079
Santa Cruz,CA,"Santa Cruz, CA",-122.0307963,36.9741171
Santa Ine's,CA,"Santa Ine's, CA",-120.079868,34.6144313
Santa Inez,CA,"Santa Inez, CA",-120.079868,34.6144313
Santa Rosa,CA,"Santa Rosa, CA",-122.7140548,38.440429
Sarcamento,CA,"Sarcamento, CA",-121.4943996,38.5815719
Sawyer's Bar,CA,"Sawyer's Bar, CA",-123.1303203,41.2973586
Scott River,CA,"Scott River, CA",-123.0350393,41.7790209
shasta,CA,"shasta, CA",-122.4907566,40.598119
Shasta,CA,"Shasta, CA",-122.4907566,40.598119
Soledad,CA,"Soledad, CA",-121.3263187,36.424687
Sonoma,CA,"Sonoma, CA",-122.4580356,38.291859
Sonora,CA,"Sonora, CA",-120.3821724,37.9829496
Spanish Flat,CA,"Spanish Flat, CA",-122.2249751,38.5351852
St. Louis,CA,"St. Louis, CA",-120.9249514,39.6985046
Stables' Ranch,CA,"Stables' Ranch, CA",-119.1659331,34.3447117
Stockton,CA,"Stockton, CA",-121.2907796,37.9577016
Suisun,CA,"Suisun, CA",-122.040244,38.2382474
Tomales,CA,"Tomales, CA",-122.9055518,38.246307
Ukiah,CA,"Ukiah, CA",-123.2077831,39.1501709
Uniontown,CA,"Uniontown, CA",-120.943969,38.8084378
Vacaville,CA,"Vacaville, CA",-121.9877444,38.3565773
Vallejo,CA,"Vallejo, CA",-122.2566367,38.1040864
Visalia,CA,"Visalia, CA",-119.2920585,36.3302284
Volcano,CA,"Volcano, CA",-120.6307628,38.4429658
Watsonville,CA,"Watsonville, CA",-121.7568946,36.910231
Weaverville,CA,"Weaverville, CA",-122.94197080000001,40.7309778
"Whiskey Diggings, Sierra County",CA,"Whiskey Diggings, Sierra County, CA",-120.8816166,39.7529495
Woodland,CA,"Woodland, CA",-121.7732971,38.67851570000001
Woodside,CA,"Woodside, CA",-122.2538557,37.4299388
Yreka,CA,"Yreka, CA",-122.6344708,41.7354186
NA,CA,"NA, CA",-109.9481297,31.3353801
Colorado Springs,CO,"Colorado Springs, CO",-104.8213634,38.8338816
Denver,CO,"Denver, CO",-104.990251,39.7392358
Ft. Garland,CO,"Ft. Garland, CO",-105.4338999,37.4288973
Ft. Lyon,CO,"Ft. Lyon, CO",-103.1248283,38.1005174
Ft. Sedgwick,CO,"Ft. Sedgwick, CO",-102.2616377,40.9870206
Golden,CO,"Golden, CO",-105.2210997,39.755543
Greeley,CO,"Greeley, CO",-104.7091322,40.4233142
Greeley (Union Colony),CO,"Greeley (Union Colony), CO",-104.694841,40.42597600000001
Longmont,CO,"Longmont, CO",-105.1019275,40.1672068
Pueblo,CO,"Pueblo, CO",-104.6091409,38.2544472
NA,CO,"NA, CO",-77.00967,38.898571
Abington,CT,"Abington, CT",-72.0067411,41.8606533
Ansonia,CT,"Ansonia, CT",-73.07899689999999,41.34620779999999
Ashford,CT,"Ashford, CT",-72.1216163,41.8730657
Avon,CT,"Avon, CT",-72.8305154,41.8096201
Barkhamstead,CT,"Barkhamstead, CT",-72.9139904,41.9292629
Barkhamsted,CT,"Barkhamsted, CT",-72.9139904,41.9292629
Berlin,CT,"Berlin, CT",-72.7456519,41.621488
Bethany,CT,"Bethany, CT",-72.9970496,41.4217637
Bethel,CT,"Bethel, CT",-73.41396209999999,41.3712283
Birmingham,CT,"Birmingham, CT",-88.1138606,41.9864773
Bloomfield,CT,"Bloomfield, CT",-72.73009449999999,41.826488
Bolton,CT,"Bolton, CT",-72.4334173,41.7689878
Bozrah,CT,"Bozrah, CT",-72.16359589999999,41.5604427
Branford,CT,"Branford, CT",-72.81411849999999,41.2799027
Bridgeport,CT,"Bridgeport, CT",-73.19517669999999,41.1865478
Bristol,CT,"Bristol, CT",-72.9492703,41.67176480000001
Brookfield,CT,"Brookfield, CT",-73.4095652,41.4825947
Brooklyn,CT,"Brooklyn, CT",-71.9497216,41.7881236
Buckingham,CT,"Buckingham, CT",-88.4155712,42.1959439
Burlington,CT,"Burlington, CT",-72.9648388,41.7691235
Canaan,CT,"Canaan, CT",-73.3001233,41.9640877
Canterbury,CT,"Canterbury, CT",-71.9709075,41.6984319
Canton,CT,"Canton, CT",-72.8956177,41.8247572
Chatham,CT,"Chatham, CT",-72.5026249,41.5757748
Cheshire,CT,"Cheshire, CT",-72.9106202,41.5083668
Chesire,CT,"Chesire, CT",-72.9106202,41.5083668
Chester,CT,"Chester, CT",-72.4824991,41.4022081
Clinton,CT,"Clinton, CT",-72.5288034,41.2882208
Colchester,CT,"Colchester, CT",-72.3320051,41.5756728
Colebrook,CT,"Colebrook, CT",-73.0956765,41.991407100000004
Columbia,CT,"Columbia, CT",-72.30119169999999,41.7020432
Cornwall,CT,"Cornwall, CT",-73.3292848,41.8437058
Coventry,CT,"Coventry, CT",-72.3393021,41.78468
Danbury,CT,"Danbury, CT",-73.4540111,41.394817
Danielsonville,CT,"Danielsonville, CT",-83.281168,34.1674502
Darien,CT,"Darien, CT",-73.4686858,41.0771914
Derby,CT,"Derby, CT",-73.0889973,41.3206523
Durham,CT,"Durham, CT",-72.6812582,41.4817822
East Guilford,CT,"East Guilford, CT",-72.674364,41.288906
East Haddam,CT,"East Haddam, CT",-72.4757767,41.5034351
East Hampton,CT,"East Hampton, CT",-72.5026249,41.5757748
East Hartford,CT,"East Hartford, CT",-72.6128339,41.7634219
East Haven,CT,"East Haven, CT",-72.8684565,41.2841687
East Lebanon,CT,"East Lebanon, CT",-72.21272549999999,41.636391
East River,CT,"East River, CT",-72.660969,41.279271
East Windsor,CT,"East Windsor, CT",-72.5578799,41.9161361
Ellington,CT,"Ellington, CT",-72.458236,41.91728260000001
Enfield,CT,"Enfield, CT",-72.5441445,42.0027181
Fairfield,CT,"Fairfield, CT",-73.2612615,41.1408363
Farmington,CT,"Farmington, CT",-72.79502699999999,41.7360305
Franklin,CT,"Franklin, CT",-72.145997499999993,41.6090041
Glastonbury,CT,"Glastonbury, CT",-72.5450779,41.6861794
Goshen,CT,"Goshen, CT",-73.2248946,41.8315187
Goshen and Nelson,CT,"Goshen and Nelson, CT",-85.7669532,41.5139079
Granby,CT,"Granby, CT",-72.7887705,41.9540614
Greens Farms,CT,"Greens Farms, CT",-73.31739619999999,41.1254494
Greenwich,CT,"Greenwich, CT",-73.6281964,41.0262417
Griswold,CT,"Griswold, CT",-71.9282781,41.5961439
Groton,CT,"Groton, CT",-72.0790717,41.3497456
Guildford,CT,"Guildford, CT",-72.674364,41.288906
Guilford,CT,"Guilford, CT",-72.674364,41.288906
"Guilford, Saybrook, Killingworth, and Lyme",CT,"Guilford, Saybrook, Killingworth, and Lyme, CT",NA,NA
Haddam,CT,"Haddam, CT",-72.5122763,41.4771433
Hadlyme,CT,"Hadlyme, CT",-72.4064743,41.4203766
Hamden,CT,"Hamden, CT",-72.9026064,41.3838782
Hampton,CT,"Hampton, CT",-72.0547977,41.7839873
hartford,CT,"hartford, CT",-72.6850932,41.76371109999999
Hartford,CT,"Hartford, CT",-72.6850932,41.76371109999999
Harwinton,CT,"Harwinton, CT",-73.0598438,41.7712762
Hebron,CT,"Hebron, CT",-72.36591609999999,41.6578767
Kensington,CT,"Kensington, CT",-72.7687083,41.6353769
Kent,CT,"Kent, CT",-73.47696429999999,41.7247554
Killingly,CT,"Killingly, CT",-71.8334145,41.8122401
Killingworth,CT,"Killingworth, CT",-72.5645602,41.3581869
Lakeville,CT,"Lakeville, CT",-73.4408034,41.9644861
Lebanon,CT,"Lebanon, CT",-72.21272549999999,41.636391
Ledyard,CT,"Ledyard, CT",-72.0181743,41.4456444
Lisbon,CT,"Lisbon, CT",-72.01125979999999,41.5998861
Litchfield,CT,"Litchfield, CT",-73.1887165,41.7472642
Lyme,CT,"Lyme, CT",-72.3429525,41.40081199999999
Madison,CT,"Madison, CT",-72.5754149,41.2959908
Mancheser,CT,"Mancheser, CT",-72.52150089999999,41.7759301
Mansfield,CT,"Mansfield, CT",-72.2292913,41.788489
Meriden,CT,"Meriden, CT",-72.80704349999999,41.5381535
Middle Haddam,CT,"Middle Haddam, CT",-72.55008959999999,41.5539879
Middlebury,CT,"Middlebury, CT",-73.12761069999999,41.5278742
Middlefield,CT,"Middlefield, CT",-72.71204019999999,41.5173203
Middletown,CT,"Middletown, CT",-72.6506488,41.5623209
Milford,CT,"Milford, CT",-73.064036,41.2306979
Montville,CT,"Montville, CT",-72.1556189,41.4639922
Moodus,CT,"Moodus, CT",-72.4500867,41.5028768
Mount Pleasant,CT,"Mount Pleasant, CT",-73.1591924,41.8336878
Naugatuck,CT,"Naugatuck, CT",-73.0506972,41.485921
New Britain,CT,"New Britain, CT",-72.7795419,41.6612104
New Cambridge,CT,"New Cambridge, CT",-72.9044598,41.6972972
New Fairfield,CT,"New Fairfield, CT",-73.48564610000001,41.4660993
New Hartford,CT,"New Hartford, CT",-72.97516929999999,41.87932139999999
New Haven,CT,"New Haven, CT",-72.9278835,41.308274
New London,CT,"New London, CT",-72.0995209,41.3556539
New Milford,CT,"New Milford, CT",-73.4085463,41.5770433
New Preston,CT,"New Preston, CT",-73.3517858,41.6750953
New Stratford,CT,"New Stratford, CT",-73.1331651,41.18454149999999
Newfield,CT,"Newfield, CT",-73.5535234,41.0919065
Newington,CT,"Newington, CT",-72.7228293,41.6972996
Newtown,CT,"Newtown, CT",-73.3035651,41.4141172
Norfolk,CT,"Norfolk, CT",-73.2020577,41.9939828
North Coventry,CT,"North Coventry, CT",-72.3393021,41.78468
North Guilford,CT,"North Guilford, CT",-72.674364,41.288906
North Haven,CT,"North Haven, CT",-72.8595447,41.39091390000001
North Killingworth,CT,"North Killingworth, CT",-72.5645602,41.3581869
North Stonington,CT,"North Stonington, CT",-71.8811827,41.4409323
Northfield,CT,"Northfield, CT",-73.1106655,41.6948193
Northford,CT,"Northford, CT",-72.7673198,41.3275971
Norwalk,CT,"Norwalk, CT",-73.4081575,41.11774399999999
Norwich,CT,"Norwich, CT",-72.07591049999999,41.5242649
Oxford,CT,"Oxford, CT",-73.1168393,41.4338203
Pawcatuck,CT,"Pawcatuck, CT",-71.8336802,41.3773218
Plainfield,CT,"Plainfield, CT",-71.91507299999999,41.6764876
Plainville,CT,"Plainville, CT",-72.86336349999999,41.6757457
Plantsville,CT,"Plantsville, CT",-72.89036449999999,41.5824016
Plymouth,CT,"Plymouth, CT",-73.0528853,41.6720418
Pomfret,CT,"Pomfret, CT",-71.9625736,41.8975977
Poquetanock,CT,"Poquetanock, CT",-72.0557049,41.4884639
Putnam,CT,"Putnam, CT",-71.8689917,41.90460119999999
Reading,CT,"Reading, CT",-77.1312647,39.3678613
Ridgefield,CT,"Ridgefield, CT",-73.4975412,41.28406349999999
Ripon,CT,"Ripon, CT",-122.065744,37.5789639
Rocky Hill,CT,"Rocky Hill, CT",-72.66557569999999,41.6572525
Roxbury,CT,"Roxbury, CT",-73.3087285,41.5564843
Salisbury,CT,"Salisbury, CT",-73.4212318,41.983426
Saybrook,CT,"Saybrook, CT",-72.38453009999999,41.2960159
Seymour,CT,"Seymour, CT",-73.07475339999999,41.397146
Sharon,CT,"Sharon, CT",-73.4768697,41.8793754
Simsbury,CT,"Simsbury, CT",-72.82791499999999,41.8540094
Somers,CT,"Somers, CT",-72.44607979999999,41.9851929
South Conventry,CT,"South Conventry, CT",-72.3050803,41.7700987
South Manchester,CT,"South Manchester, CT",-72.52150089999999,41.7759301
Southbury,CT,"Southbury, CT",-73.2133715,41.4793072
Southington,CT,"Southington, CT",-72.8776013,41.5964869
Stafford,CT,"Stafford, CT",-72.3162523,41.984407
Stamford,CT,"Stamford, CT",-73.5387341,41.0534302
Sterling,CT,"Sterling, CT",-71.8290112,41.7073744
Stonington,CT,"Stonington, CT",-71.9058854,41.3358915
Stratford,CT,"Stratford, CT",-73.1331651,41.18454149999999
Suffield,CT,"Suffield, CT",-72.7017741,41.9915062
Terryville,CT,"Terryville, CT",-73.01093929999999,41.6781533
Thomaston,CT,"Thomaston, CT",-73.0724037,41.6743343
Thompson,CT,"Thompson, CT",-71.8792264,41.9840732
Tolland,CT,"Tolland, CT",-72.3686931,41.8714865
Topsham,CT,"Topsham, CT",-121.8707049,37.7146799
Torrington,CT,"Torrington, CT",-73.1211715,41.8003049
Voluntown,CT,"Voluntown, CT",-71.8683346,41.5725461
Wallingford,CT,"Wallingford, CT",-72.8230736,41.4570108
Warren,CT,"Warren, CT",-73.3487303,41.7428733
Washington Point,CT,"Washington Point, CT",-90.975318,38.526847
Waterbury,CT,"Waterbury, CT",-73.0514965,41.5581525
Watertown,CT,"Watertown, CT",-73.11833969999999,41.6062042
Wauregan,CT,"Wauregan, CT",-71.9092393,41.7442655
West Greenwich,CT,"West Greenwich, CT",-73.6558544,41.0022329
West Hartford,CT,"West Hartford, CT",-72.7420151,41.7620842
West Haven,CT,"West Haven, CT",-72.9469711,41.2705484
West Killingly,CT,"West Killingly, CT",-71.8334145,41.8122401
West Meridan,CT,"West Meridan, CT",-72.80704349999999,41.5381535
West Suffield,CT,"West Suffield, CT",-72.74665929999999,42.0185603
West Winsted,CT,"West Winsted, CT",-73.0601078,41.9212066
Weston,CT,"Weston, CT",-73.3806748,41.2009294
Wethersfield,CT,"Wethersfield, CT",-72.6596244,41.7063537
Williamantic,CT,"Williamantic, CT",-72.2081338,41.7106543
Willington,CT,"Willington, CT",-72.2600655,41.8809434
Wilton,CT,"Wilton, CT",-73.4378988,41.1953739
Winchester,CT,"Winchester, CT",-73.111356,41.9357632
Windham,CT,"Windham, CT",-72.1570219,41.6998208
Windsor,CT,"Windsor, CT",-72.64370219999999,41.8525984
Windsor Locks,CT,"Windsor Locks, CT",-72.6454469,41.9242917
Wolcott,CT,"Wolcott, CT",-72.9867718,41.6023196
Wolcottville,CT,"Wolcottville, CT",NA,NA
Woodbridge,CT,"Woodbridge, CT",-73.0084385,41.352597
Woodbury,CT,"Woodbury, CT",-73.2090025,41.5445404
Woodstock,CT,"Woodstock, CT",-71.9739625,41.9484307
Woodstock and Killingly,CT,"Woodstock and Killingly, CT",-71.9124629,41.9215008
D.C.,DC,"D.C., DC",-77.0368707,38.9071923
Georgetown,DC,"Georgetown, DC",-77.06535650000001,38.9097057
washington,DC,"washington, DC",-77.0368707,38.9071923
Washington,DC,"Washington, DC",-77.0368707,38.9071923
Washington D.C.,DC,"Washington D.C., DC",-77.0368707,38.9071923
Dover,DE,"Dover, DE",-75.5243682,39.158168
Fort Delaware,DE,"Fort Delaware, DE",-75.587367,39.578484
Georgetown,DE,"Georgetown, DE",-75.38547280000002,38.6901134
Lewes,DE,"Lewes, DE",-75.13934979999999,38.7745565
Lincoln,DE,"Lincoln, DE",-75.4229746,38.8698352
Milton,DE,"Milton, DE",-75.3099136,38.7776124
New Castle,DE,"New Castle, DE",-75.5668166,39.6620397
Newark,DE,"Newark, DE",-75.74965720000002,39.6837226
Odessa,DE,"Odessa, DE",-75.6613184,39.457334
Smyrna,DE,"Smyrna, DE",-75.6046494,39.2998339
Wilmington,DE,"Wilmington, DE",-75.5397878,39.7390721
Chattahoochee,FL,"Chattahoochee, FL",-84.8429759,30.7051916
Grand Key,FL,"Grand Key, FL",-82.5075478,27.9042476
Jacksonville,FL,"Jacksonville, FL",-81.65565099999999,30.3321838
Key West,FL,"Key West, FL",-81.7799871,24.5550593
Pensacola,FL,"Pensacola, FL",-87.2169149,30.42130899999999
St. Augustine,FL,"St. Augustine, FL",-81.31243409999999,29.9012437
Tallahasee,FL,"Tallahasee, FL",-84.28073289999999,30.4382559
Worthington,FL,"Worthington, FL",-81.7304267,26.3277979
Athens,GA,"Athens, GA",-83.357567,33.9519347
Atlanta,GA,"Atlanta, GA",-84.3879824,33.7489954
Augusta,GA,"Augusta, GA",-82.0105148,33.4734978
Bowden,GA,"Bowden, GA",-85.2532818,33.5378885
Bowdon,GA,"Bowdon, GA",-85.2532818,33.5378885
Cassville,GA,"Cassville, GA",-84.85216199999999,34.2448172
Cave Spring,GA,"Cave Spring, GA",-85.33634339999999,34.1075975
Cedartown,GA,"Cedartown, GA",-85.25658229999999,34.0112715
Columbus,GA,"Columbus, GA",-84.9877094,32.4609764
Dahlonega,GA,"Dahlonega, GA",-83.9843953,34.5261465
Fort Pulaski,GA,"Fort Pulaski, GA",-80.89048679999999,32.02706
Greene County,GA,"Greene County, GA",-83.1649001,33.5186591
Greenville,GA,"Greenville, GA",-84.7129848,33.0287373
Griffin,GA,"Griffin, GA",-84.2640904,33.2467807
Holton,GA,"Holton, GA",-82.47721720000001,31.5456221
La Grange,GA,"La Grange, GA",-85.0322444,33.0362218
Macon,GA,"Macon, GA",-83.6324022,32.8406946
Medway,GA,"Medway, GA",-81.177323,31.7166093
Milledgeville,GA,"Milledgeville, GA",-83.2320991,33.0801429
Oxford,GA,"Oxford, GA",-83.8674051,33.6190031
Pope's Ferry,GA,"Pope's Ferry, GA",-83.7319337,32.9943853
Savanah,GA,"Savanah, GA",-81.09983419999999,32.0835407
Savannah,GA,"Savannah, GA",-81.09983419999999,32.0835407
West Point,GA,"West Point, GA",-85.18327459999999,32.8779056
Honolulu,HI,"Honolulu, HI",-157.8583333,21.3069444
Lahaina,HI,"Lahaina, HI",-156.6825,20.8783333
Oahu,HI,"Oahu, HI",-158.0000565,21.4389123
Albia,IA,"Albia, IA",-92.811307,41.0300078
Almoral,IA,"Almoral, IA",-91.2898613,42.5355463
Ames,IA,"Ames, IA",-93.63191309999999,42.0307812
Amitx,IA,"Amitx, IA",-95.0806918,40.6246316
Anamosa,IA,"Anamosa, IA",-91.28515940000001,42.1083371
Bellevue,IA,"Bellevue, IA",-90.4257531,42.25889360000001
Burlington,IA,"Burlington, IA",-91.1128901,40.8076529
Cedar Falls,IA,"Cedar Falls, IA",-92.4453161,42.5348993
Cedar Rapids,IA,"Cedar Rapids, IA",-91.6656232,41.9778795
Chariton,IA,"Chariton, IA",-93.31409850000001,41.0199996
Clarinda,IA,"Clarinda, IA",-95.038313,40.7419352
Clarksville,IA,"Clarksville, IA",-92.6676907,42.7847
Clinton,IA,"Clinton, IA",-90.1887379,41.8444735
Davenport,IA,"Davenport, IA",-90.5776367,41.5236437
Decorah,IA,"Decorah, IA",-91.7857092,43.30330559999999
Decorsh,IA,"Decorsh, IA",-91.7857092,43.30330559999999
Denver,IA,"Denver, IA",-92.3374045,42.6713718
Des Moines,IA,"Des Moines, IA",-93.6091064,41.6005448
Dubuque,IA,"Dubuque, IA",-90.66457179999999,42.5005583
Durant,IA,"Durant, IA",-90.9107037,41.5997498
Eldora,IA,"Eldora, IA",-93.10575759999999,42.3680382
Fairfield,IA,"Fairfield, IA",-91.9636914,41.00761139999999
Fayette,IA,"Fayette, IA",-91.8021071,42.84192549999999
Ft. Dodge,IA,"Ft. Dodge, IA",-94.16801579999999,42.4974694
Ft. Madison,IA,"Ft. Madison, IA",-91.31453499999999,40.6297634
Grinnell,IA,"Grinnell, IA",-92.7232456,41.74340919999999
Hamlin,IA,"Hamlin, IA",-94.9078352,41.6648173
Humboldt,IA,"Humboldt, IA",-94.2152402,42.7208047
Ida,IA,"Ida, IA",-95.4777811,42.3418685
Independence,IA,"Independence, IA",-91.8893386,42.4685978
Indianola,IA,"Indianola, IA",-93.5574376,41.3580484
Iowa City,IA,"Iowa City, IA",-91.5301683,41.6611277
Keokuk,IA,"Keokuk, IA",-91.3963966,40.4044731
Keosanqua,IA,"Keosanqua, IA",-91.96239489999999,40.7303057
Keosaugua,IA,"Keosaugua, IA",-91.96239489999999,40.7303057
Little Rock,IA,"Little Rock, IA",-95.88335239999999,43.44413530000001
Logan,IA,"Logan, IA",-95.7891614,41.6430472
Lott's Creek,IA,"Lott's Creek, IA",-94.36635849999999,43.1566312
Low Moor,IA,"Low Moor, IA",-90.35485349999999,41.8016967
Lyons,IA,"Lyons, IA",-96.15269850000001,43.3954333
Manchester,IA,"Manchester, IA",-91.4579698,42.4857853
Maquoketa,IA,"Maquoketa, IA",-90.6656914,42.0689088
Marchalltown,IA,"Marchalltown, IA",-92.90803749999999,42.0494674
Marshalltown,IA,"Marshalltown, IA",-92.90803749999999,42.0494674
Mason City,IA,"Mason City, IA",-93.20103669999999,43.1535728
McGregor,IA,"McGregor, IA",-91.1812468,43.0246813
McGuire,IA,"McGuire, IA",-95.54456049999999,42.49021399999999
Miescatine,IA,"Miescatine, IA",-91.0432051,41.424473
Monticello,IA,"Monticello, IA",-91.18709369999999,42.23833510000001
Mt. Pleasant,IA,"Mt. Pleasant, IA",-91.54877139999999,40.9716959
Mt. Vernon,IA,"Mt. Vernon, IA",-91.4168371,41.9219522
Nevada,IA,"Nevada, IA",-93.4523014,42.0227184
Onawa,IA,"Onawa, IA",-96.0972376,42.0266548
Osage,IA,"Osage, IA",-92.8190838,43.2841382
Oskaloosa,IA,"Oskaloosa, IA",-92.6493595,41.2916728
Oswego,IA,"Oswego, IA",-76.543438,43.450851
Ottumwa,IA,"Ottumwa, IA",-92.40830220000001,41.01602930000001
Pella,IA,"Pella, IA",-92.91640500000001,41.4080327
Salem,IA,"Salem, IA",-91.6201612,40.85280849999999
Sandyville,IA,"Sandyville, IA",-93.38632199999999,41.3708263
Sigourney,IA,"Sigourney, IA",-92.20462549999999,41.3333445
Sioux City,IA,"Sioux City, IA",-96.40030689999999,42.4999942
St. Sebald,IA,"St. Sebald, IA",-91.54597869999999,42.7383174
Tabor,IA,"Tabor, IA",-95.6713891,40.8983329
Trenton,IA,"Trenton, IA",-91.63738599999999,41.0616912
Vinton,IA,"Vinton, IA",-92.01856509999999,42.1646477
Waterloo,IA,"Waterloo, IA",-92.34257749999999,42.492786
Waukon,IA,"Waukon, IA",-91.47569500000002,43.2694208
Waverly,IA,"Waverly, IA",-92.4668511,42.7272032
West Point,IA,"West Point, IA",-91.4501542,40.71670390000001
Western college,IA,"Western college, IA",-95.801108,41.272829
Western College,IA,"Western College, IA",-95.801108,41.272829
Western College?,IA,"Western College?, IA",-95.801108,41.272829
Wilton,IA,"Wilton, IA",-91.01681789999999,41.5889154
Boise City,ID,"Boise City, ID",-116.2146068,43.6187102
Ft. Boise,ID,"Ft. Boise, ID",-116.1919373,43.6146909
Ft. Hall,ID,"Ft. Hall, ID",-112.4383131,43.0332482
Ft. Lapwai,ID,"Ft. Lapwai, ID",-116.8227368,46.4475305
Abingdon,IL,"Abingdon, IL",-90.4017954,40.8044833
Albany,IL,"Albany, IL",-90.2192941,41.78947480000001
Albion,IL,"Albion, IL",-88.0561465,38.37754839999999
Alton,IL,"Alton, IL",-90.1842764,38.8906038
Amboy,IL,"Amboy, IL",-89.3287061,41.71419969999999
Anna,IL,"Anna, IL",-89.2470282,37.4603274
Asbley,IL,"Asbley, IL",-89.19090969999999,38.3294942
Atlanta,IL,"Atlanta, IL",-89.2334236,40.2594846
Atlas,IL,"Atlas, IL",-90.9695778,39.5139357
Aurora,IL,"Aurora, IL",-88.32007150000001,41.7605849
Batavia,IL,"Batavia, IL",-88.3125738,41.8500284
Belleville,IL,"Belleville, IL",-89.9839935,38.5200504
Belvidere,IL,"Belvidere, IL",-88.84426739999999,42.2639098
Bement,IL,"Bement, IL",-88.572008,39.9219782
Bloomington,IL,"Bloomington, IL",-88.99368729999999,40.4842027
Bourbonnais Grove,IL,"Bourbonnais Grove, IL",-87.88675049999999,41.1580951
Buda,IL,"Buda, IL",-89.6789874,41.3261476
Bunker Hill,IL,"Bunker Hill, IL",-89.951769,39.04282389999999
Bushnell,IL,"Bushnell, IL",-90.50624,40.5528183
Cairo,IL,"Cairo, IL",-89.1764608,37.0053293
Cambridge,IL,"Cambridge, IL",-90.1928971,41.3036472
Canton,IL,"Canton, IL",-90.03511669999999,40.5580945
Carbandale,IL,"Carbandale, IL",-89.2167501,37.7272727
Carbondale,IL,"Carbondale, IL",-89.2167501,37.7272727
Carlinville,IL,"Carlinville, IL",-89.8817662,39.27976990000001
Carlyle,IL,"Carlyle, IL",-89.3725796,38.6103264
Carpentersville,IL,"Carpentersville, IL",-88.2578582,42.1211364
Carrollton,IL,"Carrollton, IL",-90.4070632,39.3022693
Carthage,IL,"Carthage, IL",-91.1362537,40.416433
Cedarville,IL,"Cedarville, IL",-89.6331727,42.3758493
Centralia,IL,"Centralia, IL",-89.1316944,38.5285169
Champaign,IL,"Champaign, IL",-88.2433829,40.1164204
chicago,IL,"chicago, IL",-87.6297982,41.8781136
Chicago,IL,"Chicago, IL",-87.6297982,41.8781136
Clay City,IL,"Clay City, IL",-88.35421199999999,38.6886589
Columbia,IL,"Columbia, IL",-90.2012239,38.44366369999999
Danvers,IL,"Danvers, IL",-89.1773055,40.5294818
Danville,IL,"Danville, IL",-87.6300207,40.124481
Decatur,IL,"Decatur, IL",-88.9548001,39.8403147
Dixon,IL,"Dixon, IL",-89.47954779999999,41.8389213
Don Quoin,IL,"Don Quoin, IL",-89.2366679,37.9952147
Dwight,IL,"Dwight, IL",-88.42505969999999,41.0944767
E. St. Louis,IL,"E. St. Louis, IL",-90.1506465,38.624514
Earlville,IL,"Earlville, IL",-88.9220265,41.5894754
East Cambridge,IL,"East Cambridge, IL",-90.1928971,41.3036472
East St. Louis,IL,"East St. Louis, IL",-90.1506465,38.624514
Eden,IL,"Eden, IL",-89.667598,38.1206055
Edgington,IL,"Edgington, IL",-90.763753,41.3869765
Edwardsville,IL,"Edwardsville, IL",-89.95315699999999,38.8114364
El Paso,IL,"El Paso, IL",-89.0164626,40.7392017
Elgin,IL,"Elgin, IL",-88.2825668,42.0354084
Elmhurst,IL,"Elmhurst, IL",-87.9403418,41.8994744
Elmira,IL,"Elmira, IL",-89.83177099999999,41.1797593
Elmore,IL,"Elmore, IL",-89.97705649999999,40.9567039
Elmwood,IL,"Elmwood, IL",-89.9665017,40.7778151
Erving,IL,"Erving, IL",-89.4045304,39.2058801
Ethel,IL,"Ethel, IL",-89.68321639999999,38.7392056
Eureka,IL,"Eureka, IL",-89.2728627,40.7214251
Evanston,IL,"Evanston, IL",-87.68769689999999,42.0450722
Fayetteville,IL,"Fayetteville, IL",-89.7953771,38.3775489
Flora,IL,"Flora, IL",-88.4856042,38.6689364
Freeburg,IL,"Freeburg, IL",-89.913714,38.4275499
Freedom,IL,"Freedom, IL",-89.9066314,42.1374707
Freeport,IL,"Freeport, IL",-89.6212271,42.2966861
Friendsville,IL,"Friendsville, IL",-87.8164189,38.5031038
Fulton,IL,"Fulton, IL",-90.1595705,41.8672508
Galena,IL,"Galena, IL",-90.4290168,42.4166744
Galesburg,IL,"Galesburg, IL",-90.3712395,40.94781580000001
Galessburg,IL,"Galessburg, IL",-90.3712395,40.94781580000001
Genesco,IL,"Genesco, IL",-90.1542848,41.4480902
Genesee,IL,"Genesee, IL",-89.7942892,41.899614
Geneseo,IL,"Geneseo, IL",-90.1542848,41.4480902
Geneva,IL,"Geneva, IL",-88.3053525,41.8875281
Gilman,IL,"Gilman, IL",-87.992262,40.7667015
Greenville,IL,"Greenville, IL",-89.41313559999999,38.8922687
Griggsville,IL,"Griggsville, IL",-90.7245722,39.7089361
Havana,IL,"Havana, IL",-90.0609506,40.3000428
Highlang,IL,"Highlang, IL",-89.6712008,38.7394918
Hillsboro,IL,"Hillsboro, IL",-89.4936989,39.1611586
Hoopeston,IL,"Hoopeston, IL",-87.6683573,40.4672587
Hyde Park,IL,"Hyde Park, IL",-87.590701,41.794295
Irvington,IL,"Irvington, IL",-89.16285119999999,38.4392162
Jacksonville,IL,"Jacksonville, IL",-90.2290098,39.733936
Joliet,IL,"Joliet, IL",-88.0817251,41.525031
Joliet?,IL,"Joliet?, IL",-88.0817251,41.525031
Kankakee,IL,"Kankakee, IL",-87.8611531,41.1200325
Kaskaskia,IL,"Kaskaskia, IL",-89.91316429999999,37.9214413
Kewanee,IL,"Kewanee, IL",-89.9248303,41.2455927
Knoxville,IL,"Knoxville, IL",-90.28484759999999,40.9083715
La Salle,IL,"La Salle, IL",-89.0418249,41.3621503
LaSalle,IL,"LaSalle, IL",-89.0418249,41.3621503
Lawrence County,IL,"Lawrence County, IL",-87.77633329999999,38.7157534
Lebanon,IL,"Lebanon, IL",-89.80731949999999,38.6039375
Leroy,IL,"Leroy, IL",-88.764237,40.3519795
Lewistown?,IL,"Lewistown?, IL",-90.1548421,40.3930973
Lincoln,IL,"Lincoln, IL",-89.3648183,40.1483768
Lincoln?,IL,"Lincoln?, IL",-89.3648183,40.1483768
Loda,IL,"Loda, IL",-88.0719857,40.5175349
Maroa,IL,"Maroa, IL",-88.957026,40.0364257
Mascoutah,IL,"Mascoutah, IL",-89.793154,38.490327
Maywood,IL,"Maywood, IL",-87.8431155,41.8791979
McLeansboro,IL,"McLeansboro, IL",-88.53560759999999,38.0933811
Mendota,IL,"Mendota, IL",-89.11758510000001,41.5472547
Metamora,IL,"Metamora, IL",-89.36064329999999,40.7905919
Metropolis,IL,"Metropolis, IL",-88.73199790000001,37.1511655
Moline,IL,"Moline, IL",-90.51513419999999,41.5067003
Monmouth,IL,"Monmouth, IL",-90.64735759999999,40.9114271
Monticello,IL,"Monticello, IL",-88.57339789999999,40.0278116
Morgan Park,IL,"Morgan Park, IL",-87.6690026,41.6878395
Morris,IL,"Morris, IL",-88.4211785,41.357254
Mount Carroll,IL,"Mount Carroll, IL",-89.9781797,42.0950233
Mount Morris,IL,"Mount Morris, IL",-89.43122009999999,42.0503062
Mt. Carmel,IL,"Mt. Carmel, IL",-87.7614174,38.4108801
Mt. Vernon,IL,"Mt. Vernon, IL",-88.9031201,38.3172714
Nashville,IL,"Nashville, IL",-89.3806398,38.3436612
Nauvoo,IL,"Nauvoo, IL",-91.3848749,40.550042
Neponset,IL,"Neponset, IL",-89.7903802,41.29587
New Athens,IL,"New Athens, IL",-89.8770468,38.3264383
Normal,IL,"Normal, IL",-88.9906312,40.5142026
Olney,IL,"Olney, IL",-88.0853154,38.7308811
Onarga,IL,"Onarga, IL",-88.0061509,40.71503500000001
Onargo,IL,"Onargo, IL",-88.0061509,40.71503500000001
Oquawka,IL,"Oquawka, IL",-90.9470863,40.931982
Origon,IL,"Origon, IL",-89.3323279,42.0147513
Ottawa,IL,"Ottawa, IL",-88.8425769,41.3455892
Ouimay?,IL,"Ouimay?, IL",-88.07505239999999,41.7601214
Paddock's Grove,IL,"Paddock's Grove, IL",-88.2194786,42.450301
Pana,IL,"Pana, IL",-89.0800809,39.3889311
Paxton,IL,"Paxton, IL",-88.0953201,40.4603125
Pekin,IL,"Pekin, IL",-89.640658,40.5675388
Pekin?,IL,"Pekin?, IL",-89.640658,40.5675388
Peoria,IL,"Peoria, IL",-89.5889864,40.6936488
Peru,IL,"Peru, IL",-89.1289728,41.3275349
Petersburg,IL,"Petersburg, IL",-89.8481652,40.0117151
Pittsfield,IL,"Pittsfield, IL",-90.8051289,39.6078254
Plainfield / Napierville,IL,"Plainfield / Napierville, IL",-88.1673015,41.7161312
Polo,IL,"Polo, IL",-89.57927819999999,41.986141
Pontiac,IL,"Pontiac, IL",-88.62978389999999,40.8808666
Quincy,IL,"Quincy, IL",-91.4098726,39.9356016
Randolph County,IL,"Randolph County, IL",-89.77553379999999,38.0629321
Rantoul,IL,"Rantoul, IL",-88.1558785,40.3083672
Renault,IL,"Renault, IL",-90.13400229999999,38.1536637
Ridge Farm,IL,"Ridge Farm, IL",-87.65196689999999,39.8955918
Robin's Nest,IL,"Robin's Nest, IL",-89.067905,37.7518999
Rock Island,IL,"Rock Island, IL",-90.5787476,41.5094771
Rockford,IL,"Rockford, IL",-89.0939952,42.2711311
Roseville,IL,"Roseville, IL",-90.6645784,40.7322617
Rushville,IL,"Rushville, IL",-90.56318290000002,40.1211577
Salem,IL,"Salem, IL",-88.9456158,38.6269929
Salena,IL,"Salena, IL",-90.4290168,42.4166744
Salina,IL,"Salina, IL",-88.0705319,41.1642751
Sandwich,IL,"Sandwich, IL",-88.6217432,41.6458634
Seales Mound?,IL,"Seales Mound?, IL",-90.2528701,42.47588229999999
Shawneetown,IL,"Shawneetown, IL",-88.1867027,37.713102
Smithton,IL,"Smithton, IL",-89.9920501,38.40866159999999
Sparta,IL,"Sparta, IL",-89.70176579999999,38.1231053
Spring Bay,IL,"Spring Bay, IL",-89.5223152,40.8244814
Springfield,IL,"Springfield, IL",-89.6501481,39.78172130000001
St. Anne,IL,"St. Anne, IL",-87.7181619,41.0229518
St. Charles,IL,"St. Charles, IL",-88.3086867,41.9141945
Sterling,IL,"Sterling, IL",-89.69621939999999,41.788642
Streator,IL,"Streator, IL",-88.835352,41.12086679999999
Sycamore,IL,"Sycamore, IL",-88.6867538,41.9889173
Teutapolis,IL,"Teutapolis, IL",-88.4719918,39.1330967
Tiskilwa,IL,"Tiskilwa, IL",-89.506204,41.292259
Tuscola,IL,"Tuscola, IL",-88.28310379999999,39.7991985
Upper Alton,IL,"Upper Alton, IL",-90.1576276,38.91448219999999
Urbana,IL,"Urbana, IL",-88.2072697,40.1105875
Vila Ridge,IL,"Vila Ridge, IL",-89.1947983,37.1586618
Villa Ridge,IL,"Villa Ridge, IL",-89.1947983,37.1586618
Virginia,IL,"Virginia, IL",-90.2123426,39.9511595
Warsaw,IL,"Warsaw, IL",-91.43459779999999,40.35921099999999
Washington,IL,"Washington, IL",-89.4073123,40.7036482
Waterloo,IL,"Waterloo, IL",-90.14983409999999,38.3358857
Watseka,IL,"Watseka, IL",-87.7364218,40.7761465
Waukegan,IL,"Waukegan, IL",-87.84479379999999,42.3636331
Westfield,IL,"Westfield, IL",-87.996146,39.4564247
Wheaton,IL,"Wheaton, IL",-88.1070127,41.8661403
Woodstock,IL,"Woodstock, IL",-88.44870209999999,42.3147436
Yorkville,IL,"Yorkville, IL",-88.44729480000001,41.6411409
NA,IL,"NA, IL",-87.6284094,41.8977357
Abilene,KS,"Abilene, KS",-97.2139094,38.9172216
Atchison,KS,"Atchison, KS",-95.12163559999999,39.5630521
Balwin City,KS,"Balwin City, KS",-95.1863603,38.775007
Blue Rapids,KS,"Blue Rapids, KS",-96.65973869999999,39.6819447
Burlingame,KS,"Burlingame, KS",-95.8349868,38.7538946
Burlington,KS,"Burlington, KS",-95.74276410000002,38.1944667
Cawker City,KS,"Cawker City, KS",-98.4343907,39.5094301
Chetopa City,KS,"Chetopa City, KS",-95.0899613,37.0372916
Coal Creek,KS,"Coal Creek, KS",-97.47348319999999,39.060431
Emporia,KS,"Emporia, KS",-96.18166260000001,38.403903
Eudora,KS,"Eudora, KS",-95.09858070000001,38.9433372
Fort Riley,KS,"Fort Riley, KS",-96.80997719999999,39.110058
Fort Wallace,KS,"Fort Wallace, KS",-101.582818,38.910241
Ft. Dodge,KS,"Ft. Dodge, KS",-99.9354098,37.7319646
Ft. Harken,KS,"Ft. Harken, KS",NA,NA
Ft. Hays,KS,"Ft. Hays, KS",-99.341484,38.862995
Ft. Leavenworth,KS,"Ft. Leavenworth, KS",-94.9201422,39.3615792
Gardner,KS,"Gardner, KS",-94.9271868,38.8108408
Girard,KS,"Girard, KS",-94.8380215,37.5111596
Highland,KS,"Highland, KS",-95.26969849999999,39.8597208
Junction City,KS,"Junction City, KS",-96.83139779999999,39.0286093
Keavenworth,KS,"Keavenworth, KS",-94.9224637,39.3111112
Lansing,KS,"Lansing, KS",-94.90024129999999,39.2486126
Lawrence,KS,"Lawrence, KS",-95.2352501,38.9716689
Leavenworth,KS,"Leavenworth, KS",-94.9224637,39.3111112
Manhattan,KS,"Manhattan, KS",-96.57166939999999,39.18360819999999
Marysville,KS,"Marysville, KS",-96.64724199999999,39.8411129
Olathe,KS,"Olathe, KS",-94.81912849999999,38.8813958
Ottawa,KS,"Ottawa, KS",-95.2686366,38.615768
Paola,KS,"Paola, KS",-94.8791294,38.5722353
Peabody Twp.,KS,"Peabody Twp., KS",-97.10638399999999,38.1670918
Seneca,KS,"Seneca, KS",-96.06416759999999,39.834165
St. Mary's,KS,"St. Mary's, KS",-96.0711041,39.194164
Topeka,KS,"Topeka, KS",-95.68901849999999,39.0558235
Vimland,KS,"Vimland, KS",-95.18219350000001,38.83945
Wathena,KS,"Wathena, KS",-94.94969069999999,39.7591606
Wyandotte,KS,"Wyandotte, KS",-94.7691586,39.0986811
NA,KS,"NA, KS",-98.4842465,39.011902
Ashland,KY,"Ashland, KY",-82.63793869999999,38.4784144
Augusta,KY,"Augusta, KY",-84.0057628,38.7717376
Bardstown,KY,"Bardstown, KY",-85.46690249999999,37.8092279
Berea,KY,"Berea, KY",-84.2963223,37.568694
Bowling Green,KY,"Bowling Green, KY",-86.4808043,36.9685219
Burlington,KY,"Burlington, KY",-84.7241133,39.02756
Campbellsville,KY,"Campbellsville, KY",-85.3419069,37.3433974
Carrollton,KY,"Carrollton, KY",-85.1793979,38.68089579999999
Carrolton,KY,"Carrolton, KY",-85.1793979,38.68089579999999
Catlettsburg,KY,"Catlettsburg, KY",-82.60043689999999,38.4048042
Cecilian,KY,"Cecilian, KY",-85.9566304,37.6658962
Clinton,KY,"Clinton, KY",-88.9933965,36.6672813
Columbia,KY,"Columbia, KY",-85.3063504,37.102841
Covington,KY,"Covington, KY",-84.5085536,39.0836712
Cynthiana,KY,"Cynthiana, KY",-84.2941013,38.3903526
Danville,KY,"Danville, KY",-84.77217019999999,37.6456329
Elizabethtown,KY,"Elizabethtown, KY",-85.8649408,37.7030646
Eminence,KY,"Eminence, KY",-85.1805105,38.3700683
Falmouth,KY,"Falmouth, KY",-84.3302142,38.6767372
Farmdale,KY,"Farmdale, KY",-84.91661769999999,38.1095175
Frankfort,KY,"Frankfort, KY",-84.87328350000001,38.2009055
Frankfort?,KY,"Frankfort?, KY",-84.87328350000001,38.2009055
Frankfurt,KY,"Frankfurt, KY",-84.87328350000001,38.2009055
Fredericksburg,KY,"Fredericksburg, KY",-84.89290729999999,38.7795634
Garnettsville,KY,"Garnettsville, KY",-86.0280868,37.9230993
Georgetown,KY,"Georgetown, KY",-84.55883109999999,38.2097967
Germantown,KY,"Germantown, KY",-83.9646491,38.65479500000001
Glascow,KY,"Glascow, KY",-85.91192149999999,36.9958839
Glasgow,KY,"Glasgow, KY",-85.91192149999999,36.9958839
Greenville,KY,"Greenville, KY",-87.1788854,37.2011539
Harrodsburg,KY,"Harrodsburg, KY",-84.8432852,37.762298
Harrodsbury,KY,"Harrodsbury, KY",-84.8432852,37.762298
Henderson,KY,"Henderson, KY",-87.59001339999999,37.8361538
Hopkinsvile,KY,"Hopkinsvile, KY",-87.4886186,36.8656008
Hopkinsville,KY,"Hopkinsville, KY",-87.4886186,36.8656008
Howlett,KY,"Howlett, KY",-86.4282633,36.9671412
Jeffersontown,KY,"Jeffersontown, KY",-85.5644033,38.1942356
Lagrange,KY,"Lagrange, KY",-85.37884679999999,38.4075666
Lancaster,KY,"Lancaster, KY",-84.5779957,37.6195246
Lebanon,KY,"Lebanon, KY",-85.2527381,37.5697868
Leesburg,KY,"Leesburg, KY",-84.4182714,38.2945189
Lexington,KY,"Lexington, KY",-84.5037164,38.0405837
London,KY,"London, KY",-84.08326459999999,37.1289771
Louisville,KY,"Louisville, KY",-85.7584557,38.2526647
Louisvillle,KY,"Louisvillle, KY",-85.7584557,38.2526647
Madison,KY,"Madison, KY",-84.3121264,37.7143001
Manchester,KY,"Manchester, KY",-83.7618641,37.1537007
Maysville,KY,"Maysville, KY",-83.744365,38.6411854
Millersburg,KY,"Millersburg, KY",-84.14742969999999,38.30202
Morganfield,KY,"Morganfield, KY",-87.9166915,37.6833776
Mount Sterling,KY,"Mount Sterling, KY",-83.9432556,38.0564679
Mount Vernon,KY,"Mount Vernon, KY",-84.3404919,37.3528615
Mt. Sterling,KY,"Mt. Sterling, KY",-83.9432556,38.0564679
Munfordsville,KY,"Munfordsville, KY",-85.8910819,37.2722751
Murray,KY,"Murray, KY",-88.31476099999999,36.6103334
Near Princeton,KY,"Near Princeton, KY",-87.8819594,37.1092162
New Castle,KY,"New Castle, KY",-85.16967679999999,38.4334003
New Liberty,KY,"New Liberty, KY",-84.9066156,38.6158987
Newport,KY,"Newport, KY",-84.4957757,39.091449
Paducah,KY,"Paducah, KY",-88.6000478,37.0833893
Paintsville,KY,"Paintsville, KY",-82.8071054,37.814538400000004
Paris,KY,"Paris, KY",-84.2529869,38.2097987
Pervee? Valley,KY,"Pervee? Valley, KY",NA,NA
Pewee Valley,KY,"Pewee Valley, KY",-85.4874595,38.3106248
Princeton,KY,"Princeton, KY",-87.8819594,37.1092162
Rabbit Hash,KY,"Rabbit Hash, KY",-84.8471711,38.9414494
Richmond,KY,"Richmond, KY",-84.2946539,37.7478572
Russellville,KY,"Russellville, KY",-86.887219,36.8453199
Shelbyville,KY,"Shelbyville, KY",-85.2235666,38.2120144
South Union,KY,"South Union, KY",-86.6563839,36.8764307
Speedwell,KY,"Speedwell, KY",-84.17520739999999,37.6742481
Springfield,KY,"Springfield, KY",-85.2221819,37.6853413
Stanford,KY,"Stanford, KY",-84.6618876,37.5311901
Versailles,KY,"Versailles, KY",-84.7299464,38.05257599999999
Washington,KY,"Washington, KY",-83.80849719999999,38.6161549
Winchester,KY,"Winchester, KY",-84.17965029999999,37.990079
Alexandria,LA,"Alexandria, LA",-92.4451371,31.3112936
Algiers,LA,"Algiers, LA",-90.0139908,29.9220105
Baton Rouge,LA,"Baton Rouge, LA",-91.1403196,30.4582829
Bellview,LA,"Bellview, LA",-118.266839,34.0730461
Bringiers,LA,"Bringiers, LA",-90.02155739999999,29.9373651
Donaldsonville,LA,"Donaldsonville, LA",-90.9928773,30.1010323
Fort Pike,LA,"Fort Pike, LA",-89.7371155,30.1662457
Franklin,LA,"Franklin, LA",-91.5015002,29.7960399
Grand Coteau,LA,"Grand Coteau, LA",-92.04650869999999,30.4199203
Jackson,LA,"Jackson, LA",-91.2176087,30.8374036
Mansfield,LA,"Mansfield, LA",-93.70018189999999,32.0376629
Monroe,LA,"Monroe, LA",-92.1193012,32.5093109
Mt. Lebanon,LA,"Mt. Lebanon, LA",-93.04905079999999,32.5037644
new orleans,LA,"new orleans, LA",-90.0715323,29.95106579999999
New Orleans,LA,"New Orleans, LA",-90.0715323,29.95106579999999
Osyka,LA,"Osyka, LA",-90.4723178,31.0068453
St. James,LA,"St. James, LA",-90.7913227,30.0179292
Thibodaux,LA,"Thibodaux, LA",-90.82287099999999,29.7957633
Washington,LA,"Washington, LA",-92.057063,30.6163073
NA,LA,"NA, LA",-95.8897216,36.0736331
Abington,MA,"Abington, MA",-70.9453218,42.1048228
Adams,MA,"Adams, MA",-73.1174344,42.6242251
Amesbury,MA,"Amesbury, MA",-70.93003759999999,42.85839250000001
Amherst,MA,"Amherst, MA",-72.5198537,42.3732216
Andover,MA,"Andover, MA",-71.1367953,42.6583356
Arlington,MA,"Arlington, MA",-71.1564729,42.4153925
Ashburnham,MA,"Ashburnham, MA",-71.90973939999999,42.635545
Ashby,MA,"Ashby, MA",-71.81871389999999,42.6772767
Ashfield,MA,"Ashfield, MA",-72.788426,42.5264745
Athol,MA,"Athol, MA",-72.2267383,42.59593290000001
Attleboro,MA,"Attleboro, MA",-71.2856082,41.94454409999999
Attleborough,MA,"Attleborough, MA",-71.2856082,41.94454409999999
Auburn,MA,"Auburn, MA",-71.8356271,42.1945385
Ayer,MA,"Ayer, MA",-71.58990539999999,42.5611947
Barnstable,MA,"Barnstable, MA",-70.3002024,41.7003208
Barre,MA,"Barre, MA",-72.10510020000001,42.4229047
Belchertown,MA,"Belchertown, MA",-72.4008884,42.2770346
Belmont,MA,"Belmont, MA",-71.1776114,42.3956405
Berkley,MA,"Berkley, MA",-71.08282220000001,41.8459347
Berlin,MA,"Berlin, MA",-71.63701209999999,42.3812039
Bernardston,MA,"Bernardston, MA",-72.5483277,42.6710048
Beverly,MA,"Beverly, MA",-70.880049,42.5584283
Beverly Farms,MA,"Beverly Farms, MA",-70.81060289999999,42.5639842
Billerica,MA,"Billerica, MA",-71.2689461,42.5584218
Blackinton,MA,"Blackinton, MA",-71.28987699999999,41.950382
Blackstone,MA,"Blackstone, MA",-71.53678599999999,42.0418415
Bolton,MA,"Bolton, MA",-71.6078449,42.43342579999999
Boston,MA,"Boston, MA",-71.0588801,42.3600825
Boxford,MA,"Boxford, MA",-70.996726,42.6611604
Boylston Centre,MA,"Boylston Centre, MA",-71.7350703,42.35287049999999
Bradford,MA,"Bradford, MA",-71.0758905,42.7695348
Braintree,MA,"Braintree, MA",-71.0040013,42.2079017
Brewster,MA,"Brewster, MA",-70.0827905,41.7600902
Bridgewater,MA,"Bridgewater, MA",-70.9750541,41.9903519
Brighton,MA,"Brighton, MA",-71.1626756,42.3463503
Brimfield,MA,"Brimfield, MA",-72.2005059,42.1225482
Brockton,MA,"Brockton, MA",-71.0183787,42.0834335
Brookfield,MA,"Brookfield, MA",-72.1022991,42.2139817
Brookline,MA,"Brookline, MA",-71.1211635,42.33176419999999
Burlington,MA,"Burlington, MA",-71.1956205,42.5047161
Cambridge,MA,"Cambridge, MA",-71.10973349999999,42.3736158
Cambridgeport,MA,"Cambridgeport, MA",-71.1077157,42.3595761
Canton,MA,"Canton, MA",-71.1447732,42.1584324
Carlisle,MA,"Carlisle, MA",-71.3495046,42.5292597
Charleston,MA,"Charleston, MA",-71.0602131,42.3782065
Charlestown,MA,"Charlestown, MA",-71.0602131,42.3782065
Charlton,MA,"Charlton, MA",-71.970074,42.13565
Chatham,MA,"Chatham, MA",-69.95976639999999,41.6820897
Chelmsford,MA,"Chelmsford, MA",-71.3672838,42.5998139
Chelsea,MA,"Chelsea, MA",-71.0328284,42.3917638
Cheshire,MA,"Cheshire, MA",-73.162881,42.5620278
Chesterfield,MA,"Chesterfield, MA",-72.8398172,42.3917541
Chicopee,MA,"Chicopee, MA",-72.6078672,42.1487043
Clinton,MA,"Clinton, MA",-71.68290809999999,42.41676349999999
Cohasset,MA,"Cohasset, MA",-70.8036544,42.24176749999999
College Hill,MA,"College Hill, MA",-71.80672899999999,42.2369376
Concord,MA,"Concord, MA",-71.3489484,42.4603719
Conway,MA,"Conway, MA",-72.6995349,42.5098085
Cummington,MA,"Cummington, MA",-72.8913714,42.459188
Curtisville,MA,"Curtisville, MA",-70.917542,42.0223234
Dalton,MA,"Dalton, MA",-73.1662138,42.4736959
Danvers,MA,"Danvers, MA",-70.93212199999999,42.5750009
Danversport,MA,"Danversport, MA",-70.91744960000001,42.5578637
Dedham,MA,"Dedham, MA",-71.1676536,42.2436085
Deerfield,MA,"Deerfield, MA",-72.6056435,42.5445588
Dennis,MA,"Dennis, MA",-70.1939429,41.7353062
Dighton,MA,"Dighton, MA",-71.15673439999999,41.84385899999999
Dorchester,MA,"Dorchester, MA",-71.067605,42.30163049999999
Dorchester and Milton,MA,"Dorchester and Milton, MA",-71.054733,42.282974
Douglas,MA,"Douglas, MA",-71.739379,42.0543449
Dover,MA,"Dover, MA",-71.2828719,42.2458749
Dunstable,MA,"Dunstable, MA",-71.4828433,42.67508979999999
E. Cambridge,MA,"E. Cambridge, MA",-71.08246129999999,42.3683353
East Attleboro,MA,"East Attleboro, MA",-71.2856082,41.94454409999999
East Boston,MA,"East Boston, MA",-71.0388601,42.37021370000001
East Bridgewater,MA,"East Bridgewater, MA",-70.9592096,42.0334341
East Cambridge,MA,"East Cambridge, MA",-71.08246129999999,42.3683353
East Dennis,MA,"East Dennis, MA",-70.1619638,41.7426094
East Hampton,MA,"East Hampton, MA",-72.66897999999999,42.266757
East Sudbury,MA,"East Sudbury, MA",-71.4161725,42.3834278
East Walpole,MA,"East Walpole, MA",-71.21010679999999,42.1614952
Easthampton,MA,"Easthampton, MA",-72.66897999999999,42.266757
Easton,MA,"Easton, MA",-71.1286594,42.0245442
Edgartown,MA,"Edgartown, MA",-70.5133599,41.3890052
Erving,MA,"Erving, MA",-72.3981416,42.6000863
Essex,MA,"Essex, MA",-70.7829315,42.63195820000001
Fairhaven,MA,"Fairhaven, MA",-70.90364869999999,41.6376043
Fall River,MA,"Fall River, MA",-71.1550451,41.7014912
Falmouth,MA,"Falmouth, MA",-70.60858859999999,41.5532208
Fells,MA,"Fells, MA",-71.0913224,42.4555047
Fitchburg,MA,"Fitchburg, MA",-71.8022955,42.5834228
Fitchburg (Worcester County),MA,"Fitchburg (Worcester County), MA",-71.8022955,42.5834228
Fort Independence,MA,"Fort Independence, MA",-71.01182969999999,42.3385285
Foxboro,MA,"Foxboro, MA",-71.2478251,42.0653812
Framingham,MA,"Framingham, MA",-71.4161565,42.279286
Franingham,MA,"Franingham, MA",-71.4161565,42.279286
Franklin,MA,"Franklin, MA",-71.396725,42.0834313
Freetown,MA,"Freetown, MA",-71.014118,41.7619708
Gardner,MA,"Gardner, MA",-71.998133,42.5750883
Georgetown,MA,"Georgetown, MA",-70.99116590000001,42.7250918
Gill,MA,"Gill, MA",-72.4996367,42.6408105
Globe Village,MA,"Globe Village, MA",-71.18560149999999,41.6820467
Gloucester,MA,"Gloucester, MA",-70.6619888,42.6159285
Gloucester?,MA,"Gloucester?, MA",-70.6619888,42.6159285
Glouchester,MA,"Glouchester, MA",-70.6619888,42.6159285
Goshen,MA,"Goshen, MA",-72.7993986,42.4407187
Grafton,MA,"Grafton, MA",-71.6856236,42.2070391
Great Barrington,MA,"Great Barrington, MA",-73.362008,42.1959798
Greenfield,MA,"Greenfield, MA",-72.5994104,42.587915
Groton,MA,"Groton, MA",-71.5745152,42.6112018
Groton Centre,MA,"Groton Centre, MA",-71.5745152,42.6112018
Hadley,MA,"Hadley, MA",-72.58842220000001,42.3417565
Hardwick,MA,"Hardwick, MA",-72.1986558,42.3490548
Harvard,MA,"Harvard, MA",-71.5828444,42.5000919
Hatfield,MA,"Hatfield, MA",-72.5981843,42.3709761
Hathorne,MA,"Hathorne, MA",-70.97449639999999,42.5862053
Havenhill,MA,"Havenhill, MA",-71.0772796,42.7762015
Haverhill,MA,"Haverhill, MA",-71.0772796,42.7762015
Hingham,MA,"Hingham, MA",-70.889759,42.2418172
Hingham Centre (Plymouth County),MA,"Hingham Centre (Plymouth County), MA",-70.8802164,42.28998050000001
Hinsdale,MA,"Hinsdale, MA",-73.1253799,42.4386967
Holbrook,MA,"Holbrook, MA",-71.014118,42.144846
Holden,MA,"Holden, MA",-71.8634062,42.3517585
Holland,MA,"Holland, MA",-72.15728849999999,42.0639524
Holliston,MA,"Holliston, MA",-71.4245049,42.20009659999999
Holyoke,MA,"Holyoke, MA",-72.6162009,42.2042586
Hopkinton,MA,"Hopkinton, MA",-71.5225646,42.22869540000001
Housatonic,MA,"Housatonic, MA",-73.3662214,42.2542548
Hubbardston,MA,"Hubbardston, MA",-72.0061877,42.4737009
Hudson,MA,"Hudson, MA",-71.56613899999999,42.39173599999999
Hyde Park,MA,"Hyde Park, MA",-71.1240559,42.2565289
Ipowich?,MA,"Ipowich?, MA",-70.8411558,42.6791832
Ipswich,MA,"Ipswich, MA",-70.8411558,42.6791832
Iswich,MA,"Iswich, MA",-70.8411558,42.6791832
Jamaica Plain,MA,"Jamaica Plain, MA",-71.1151431,42.3097365
Kingston,MA,"Kingston, MA",-70.7284785,41.9932752
Lakeville,MA,"Lakeville, MA",-70.9495226,41.8459169
Lancaster,MA,"Lancaster, MA",-71.6731242,42.4556452
Lanesborough,MA,"Lanesborough, MA",-73.2281596,42.5173058
Lawrence,MA,"Lawrence, MA",-71.1631137,42.7070354
Lechmere Point,MA,"Lechmere Point, MA",-71.0774009,42.37151679999999
Lee,MA,"Lee, MA",-73.2481951,42.3042151
Leicester,MA,"Leicester, MA",-71.90868429999999,42.245926
Lennox,MA,"Lennox, MA",-73.2848762,42.35646089999999
Lenox,MA,"Lenox, MA",-73.2848762,42.35646089999999
Leominster,MA,"Leominster, MA",-71.759794,42.5250906
Lexington,MA,"Lexington, MA",-71.2289641,42.4430372
Lincoln,MA,"Lincoln, MA",-71.3039469,42.4259283
Littleton,MA,"Littleton, MA",-71.5128022,42.5372893
Longmeadow,MA,"Longmeadow, MA",-72.5828642,42.0501022
Lowell,MA,"Lowell, MA",-71.31617179999999,42.6334247
Ludburg,MA,"Ludburg, MA",-71.4270342,42.1469235
Lunenburg,MA,"Lunenburg, MA",-71.7245035,42.5945273
Lynn,MA,"Lynn, MA",-70.9494938,42.46676300000001
Malden,MA,"Malden, MA",-71.066163,42.4250964
Manchester,MA,"Manchester, MA",-70.7675967,42.577834
Marblehead,MA,"Marblehead, MA",-70.8578024,42.49995819999999
Marion,MA,"Marion, MA",-70.7525299,41.697719
Marlboro,MA,"Marlboro, MA",-71.5522874,42.3459271
Marlborough,MA,"Marlborough, MA",-71.5522874,42.3459271
Medfield,MA,"Medfield, MA",-71.30645969999999,42.18758260000001
Medford,MA,"Medford, MA",-71.1061639,42.4184296
Medway,MA,"Medway, MA",-71.3967256,42.1417641
Melrose,MA,"Melrose, MA",-71.0661633,42.4584292
Methuen,MA,"Methuen, MA",-71.1908924,42.7262016
Middleborough,MA,"Middleborough, MA",-70.9107708,41.8929942
Middlefield,MA,"Middlefield, MA",-73.01510110000001,42.3484207
Middlesex,MA,"Middlesex, MA",-71.2874209,42.467206
Middleton,MA,"Middleton, MA",-71.0161643,42.59509389999999
Milford,MA,"Milford, MA",-71.5163049,42.1398577
Millbury,MA,"Millbury, MA",-71.761522,42.19207189999999
Milton,MA,"Milton, MA",-71.0661653,42.2495321
Monson,MA,"Monson, MA",-72.3189519,42.1042451
Montague,MA,"Montague, MA",-72.5353437,42.5355277
Nahant,MA,"Nahant, MA",-70.922279,42.4265633
Nantucket,MA,"Nantucket, MA",-70.099451,41.2834704
Natick,MA,"Natick, MA",-71.3468091,42.2775281
Needham,MA,"Needham, MA",-71.23775479999999,42.2809285
New Bedford,MA,"New Bedford, MA",-70.93420499999999,41.6362152
New Boston,MA,"New Boston, MA",-73.076407,42.0936945
Newbury,MA,"Newbury, MA",-70.8714528,42.7649497
Newburyport,MA,"Newburyport, MA",-70.87727509999999,42.8125913
Newton,MA,"Newton, MA",-71.20922139999999,42.3370413
Newton Centre,MA,"Newton Centre, MA",-71.1948255,42.3300503
Newton Lower Falls,MA,"Newton Lower Falls, MA",-71.25923399999999,42.3306044
Norfolk,MA,"Norfolk, MA",-71.3250563,42.1195426
North Adams,MA,"North Adams, MA",-73.1087148,42.70091499999999
North Amherst,MA,"North Amherst, MA",-72.53092099999999,42.410367
North Andover,MA,"North Andover, MA",-71.1350575,42.69870239999999
North Attleborough,MA,"North Attleborough, MA",-71.35654389999999,41.9695516
North Bridgewater,MA,"North Bridgewater, MA",-70.9750541,41.9903519
North Brookfield,MA,"North Brookfield, MA",-72.08503999999999,42.2685574
North Chelmsford,MA,"North Chelmsford, MA",-71.383617,42.63960549999999
North Danvers,MA,"North Danvers, MA",-70.9635406,42.5976627
North Reading,MA,"North Reading, MA",-71.0786653,42.5750939
North Woburn,MA,"North Woburn, MA",-71.1522765,42.4792618
North Wrentham,MA,"North Wrentham, MA",-71.3281114,42.0667652
Northampton,MA,"Northampton, MA",-72.64120129999999,42.3250896
Northborough,MA,"Northborough, MA",-71.6411997,42.3195556
Northbridge,MA,"Northbridge, MA",-71.6494407,42.1516323
Northfield,MA,"Northfield, MA",-72.4528885,42.6959093
Northhampton,MA,"Northhampton, MA",-72.64120129999999,42.3250896
Norton,MA,"Norton, MA",-71.1869963,41.9667703
Norwook,MA,"Norwook, MA",-71.19896949999999,42.19439089999999
Oakham,MA,"Oakham, MA",-72.0449783,42.35271050000001
Orange,MA,"Orange, MA",-72.3097914,42.590354
Orleans,MA,"Orleans, MA",-69.9897323,41.7898354
Oxford,MA,"Oxford, MA",-71.8647577,42.1167606
Palmer,MA,"Palmer, MA",-72.3286869,42.1584103
Paxton,MA,"Paxton, MA",-71.9278427,42.3114889
Peabody,MA,"Peabody, MA",-70.9286609,42.5278731
Pepperell,MA,"Pepperell, MA",-71.5884363,42.66592319999999
Phillipston,MA,"Phillipston, MA",-72.1328582,42.5486993
Pittsfield,MA,"Pittsfield, MA",-73.2453824,42.4500845
Plainfield,MA,"Plainfield, MA",-72.9162075,42.5153633
Plymouth,MA,"Plymouth, MA",-70.6672621,41.9584457
Princeton,MA,"Princeton, MA",-71.877296,42.4487019
Provincetown,MA,"Provincetown, MA",-70.1786425,42.0584412
Quincy,MA,"Quincy, MA",-71.0022705,42.2528772
Randolph,MA,"Randolph, MA",-71.042551,42.1619739
Reading,MA,"Reading, MA",-71.0952891,42.5256563
Readville,MA,"Readville, MA",-71.1299976,42.2384918
Revere,MA,"Revere, MA",-71.0119948,42.4084302
Rhees,MA,"Rhees, MA",-71.0674787,42.3623996
Richmond,MA,"Richmond, MA",-73.3676804,42.3729519
Rockland,MA,"Rockland, MA",-70.9161551,42.1306563
Rockport,MA,"Rockport, MA",-70.620363,42.6556505
Rowe,MA,"Rowe, MA",-72.899542,42.6934166
Rowley,MA,"Rowley, MA",-70.8787277,42.7167483
Roxbury,MA,"Roxbury, MA",-71.0913748,42.3151978
Royalston,MA,"Royalston, MA",-72.18786039999999,42.6775856
Ruthland,MA,"Ruthland, MA",-71.9481211,42.3695086
Rutland,MA,"Rutland, MA",-71.9481211,42.3695086
Salem,MA,"Salem, MA",-70.8967155,42.51954
Salisbury,MA,"Salisbury, MA",-70.8605982,42.84172299999999
Sandisfield,MA,"Sandisfield, MA",-73.1431637,42.1125914
Sandwich,MA,"Sandwich, MA",-70.49393169999999,41.7589615
Saugus,MA,"Saugus, MA",-71.0110473,42.4651421
Saultborough,MA,"Saultborough, MA",-71.5245087,42.3056501
Scituate,MA,"Scituate, MA",-70.7258633,42.195929
Sheffield,MA,"Sheffield, MA",-73.35514359999999,42.1099885
Shelburne,MA,"Shelburne, MA",-72.6884244,42.5898074
Shelburne Centre,MA,"Shelburne Centre, MA",-72.6906022,42.5860198
Sherborn,MA,"Sherborn, MA",-71.3697813,42.23898570000001
Shirley,MA,"Shirley, MA",-71.6495176,42.5437035
Shrewsbury,MA,"Shrewsbury, MA",-71.71284709999999,42.2959267
Somerville,MA,"Somerville, MA",-71.0994968,42.3875968
South Boston,MA,"South Boston, MA",-71.0475773,42.3381437
South Chatham,MA,"South Chatham, MA",-70.02419309999999,41.6795364
South Danvers,MA,"South Danvers, MA",-70.93212199999999,42.5750009
South Dedham,MA,"South Dedham, MA",-71.1676536,42.2436085
South Dennis,MA,"South Dennis, MA",-70.1515342,41.7020781
South Farmington,MA,"South Farmington, MA",-71.4161565,42.279286
South Gardner,MA,"South Gardner, MA",-71.998133,42.5750883
South Hadley,MA,"South Hadley, MA",-72.57479339999999,42.2591729
South Natick,MA,"South Natick, MA",-71.3161688,42.2737081
South Reading,MA,"South Reading, MA",-71.0723391,42.5039395
South Scituate,MA,"South Scituate, MA",-70.7258633,42.195929
South Sudbury,MA,"South Sudbury, MA",-71.4161725,42.3834278
South Yarmouth,MA,"South Yarmouth, MA",-70.1847413,41.6667779
Southborough,MA,"Southborough, MA",-71.5245087,42.3056501
Southbridge,MA,"Southbridge, MA",-72.0333905,42.0751065
Spencer,MA,"Spencer, MA",-71.9922867,42.2439682
Springboro,MA,"Springboro, MA",NA,NA
Springfield,MA,"Springfield, MA",-72.589811,42.1014831
Sterling,MA,"Sterling, MA",-71.76062929999999,42.4374156
Stockbridge,MA,"Stockbridge, MA",-73.3203862,42.2875874
Stoneham,MA,"Stoneham, MA",-71.0999719,42.4802469
Stoughton,MA,"Stoughton, MA",-71.10920120000002,42.1229099
Stow,MA,"Stow, MA",-71.5056199,42.4370374
Sturbridge,MA,"Sturbridge, MA",-72.0787059,42.1084122
Sunderland,MA,"Sunderland, MA",-72.5795115,42.4663727
Sutton,MA,"Sutton, MA",-71.7632878,42.1500353
Swampscott,MA,"Swampscott, MA",-70.91755619999999,42.47094370000001
Swansea,MA,"Swansea, MA",-71.1895617,41.748162
Tannton,MA,"Tannton, MA",-71.0897674,41.900101
Taunton,MA,"Taunton, MA",-71.0897674,41.900101
Templeton,MA,"Templeton, MA",-72.06757900000001,42.555644
Tewksbury,MA,"Tewksbury, MA",-71.23422479999999,42.6106478
Topsfield,MA,"Topsfield, MA",-70.9495053,42.6375941
Townsend,MA,"Townsend, MA",-71.70512649999999,42.6667718
Tyngsborough,MA,"Tyngsborough, MA",-71.4244224,42.6766696
Upton,MA,"Upton, MA",-71.6022583,42.1744878
Uxbridge,MA,"Uxbridge, MA",-71.6302532,42.07724289999999
Vineyard Haven,MA,"Vineyard Haven, MA",-70.6036395,41.4542786
Wakefield,MA,"Wakefield, MA",-71.0723391,42.5039395
Wales,MA,"Wales, MA",-72.22230069999999,42.0695393
Walpole,MA,"Walpole, MA",-71.2495096,42.1417442
Waltham,MA,"Waltham, MA",-71.2356113,42.3764852
Ware,MA,"Ware, MA",-72.2398566,42.2598457
Wareham,MA,"Wareham, MA",-70.71973419999999,41.7614511
Warwick,MA,"Warwick, MA",-72.33897429999999,42.6820293
Watertown,MA,"Watertown, MA",-71.1828321,42.3709299
Wayland,MA,"Wayland, MA",-71.3614484,42.3625953
Webster,MA,"Webster, MA",-71.88006279999999,42.05009099999999
Wellesley,MA,"Wellesley, MA",-71.29238769999999,42.296797
Wellfleet,MA,"Wellfleet, MA",-70.03097530000001,41.93054679999999
Wendell,MA,"Wendell, MA",-72.396722,42.5481852
Wenham,MA,"Wenham, MA",-70.8911612,42.604261
West,MA,"West, MA",-71.3824374,42.4072107
West Boylston,MA,"West Boylston, MA",-71.78562699999999,42.3667589
West Brookfield,MA,"West Brookfield, MA",-72.14116419999999,42.2353463
West Cambridge,MA,"West Cambridge, MA",-71.13593929999999,42.3774469
West Dennis,MA,"West Dennis, MA",-70.17279669999999,41.6645557
West Medway,MA,"West Medway, MA",-71.3967256,42.1417641
West Newbury,MA,"West Newbury, MA",-70.989778,42.8014795
West Roxbury,MA,"West Roxbury, MA",-71.1626756,42.2797554
West Scituate,MA,"West Scituate, MA",-70.7258633,42.195929
West Springfield,MA,"West Springfield, MA",-72.6203675,42.1070383
West Tisbury,MA,"West Tisbury, MA",-70.6744723,41.38122449999999
Westboro,MA,"Westboro, MA",-71.61612939999999,42.2695216
Westborough,MA,"Westborough, MA",-71.61612939999999,42.2695216
Westfield,MA,"Westfield, MA",-72.749538,42.1250929
Westford,MA,"Westford, MA",-71.4378411,42.5792583
Westminster,MA,"Westminster, MA",-71.91063079999999,42.5459227
Weston,MA,"Weston, MA",-71.3031132,42.3667625
Weymouth,MA,"Weymouth, MA",-70.94103559999999,42.2180724
Whately,MA,"Whately, MA",-72.6348118,42.4398101
Whitinsville,MA,"Whitinsville, MA",-71.6661783,42.1112075
Wilbraham,MA,"Wilbraham, MA",-72.431586,42.1237206
Williamstown,MA,"Williamstown, MA",-73.20368979999999,42.7120196
Wilmington,MA,"Wilmington, MA",-71.1724467,42.5481714
Winchendon,MA,"Winchendon, MA",-72.0439529,42.6871009
Winchester,MA,"Winchester, MA",-71.1369959,42.452303
Woburn,MA,"Woburn, MA",-71.1522765,42.4792618
Worcester,MA,"Worcester, MA",-71.8022934,42.2625932
Wrentham,MA,"Wrentham, MA",-71.3281114,42.0667652
Yarmouth,MA,"Yarmouth, MA",-70.2286681,41.7056291
All Hallows?,MD,"All Hallows?, MD",-76.5812207,38.9106343
Ann Arundel County,MD,"Ann Arundel County, MD",-76.5488232,38.9530109
Annapolis,MD,"Annapolis, MD",-76.4921829,38.9784453
baltimore,MD,"baltimore, MD",-76.6121893,39.2903848
Baltimore,MD,"Baltimore, MD",-76.6121893,39.2903848
Calvert Co.,MD,"Calvert Co., MD",-76.5025742,38.49495030000001
Calvert County,MD,"Calvert County, MD",-76.5025742,38.49495030000001
Cambridge,MD,"Cambridge, MD",-76.0788292,38.5631744
Carroll,MD,"Carroll, MD",-77.0564464,39.5423418
Carrollton,MD,"Carrollton, MD",-76.91692379999999,39.5570469
Charles County,MD,"Charles County, MD",-77.10249019999999,38.5221781
Charlotte Hall,MD,"Charlotte Hall, MD",-76.778021999999993,38.4809565
Chestertown,MD,"Chestertown, MD",-76.0690036,39.21886629999999
Chestertown?,MD,"Chestertown?, MD",-76.0690036,39.21886629999999
Church Creek,MD,"Church Creek, MD",-76.1521643,38.5020649
College Station,MD,"College Station, MD",-96.289794,30.581083
Cumberland,MD,"Cumberland, MD",-78.7625185,39.6528654
Dorchester,MD,"Dorchester, MD",-76.17837390000001,38.4152819
Dorchester County,MD,"Dorchester County, MD",-76.17837390000001,38.4152819
Durham?,MD,"Durham?, MD",-75.05239329999999,39.7783543
Easton,MD,"Easton, MD",-76.0763305,38.7742826
Ellicot City,MD,"Ellicot City, MD",-76.7983067,39.2673283
Ellicott City,MD,"Ellicott City, MD",-76.7983067,39.2673283
Ellicott Mills,MD,"Ellicott Mills, MD",-76.7983067,39.2673283
Ellicott's Mills,MD,"Ellicott's Mills, MD",-76.7983067,39.2673283
Emmetsburg,MD,"Emmetsburg, MD",-77.32693069999999,39.7045417
Emmettsburg,MD,"Emmettsburg, MD",-77.32693069999999,39.7045417
Frederick,MD,"Frederick, MD",-77.4105409,39.41426879999999
Hagerstown,MD,"Hagerstown, MD",-77.71999319999999,39.6417629
Herring Creek,MD,"Herring Creek, MD",-76.54134479999999,38.1862382
Ilchester,MD,"Ilchester, MD",-76.7640977,39.2507307
Kent County,MD,"Kent County, MD",-76.1319953,39.2713804
Lonacoming,MD,"Lonacoming, MD",-78.98030399999999,39.5659228
New Windsor,MD,"New Windsor, MD",-77.1080376,39.5420455
Oakland,MD,"Oakland, MD",-79.4067116,39.4078747
Pickamaxon,MD,"Pickamaxon, MD",NA,NA
Rockville,MD,"Rockville, MD",-77.1527578,39.0839973
Salisbury,MD,"Salisbury, MD",-75.5993692,38.3606736
Sandy Spring,MD,"Sandy Spring, MD",-77.0262286,39.1495278
Snow Hill?,MD,"Snow Hill?, MD",-75.39269589999999,38.1770634
Somerset,MD,"Somerset, MD",-77.0960893,38.9659438
Somerset Co.,MD,"Somerset Co., MD",-75.8533954,38.0862333
South River?,MD,"South River?, MD",-76.5352094,38.9357449
South Sassafres?,MD,"South Sassafres?, MD",-75.7738473,39.3752128
Stepney?,MD,"Stepney?, MD",-76.5608955,38.9282896
Talbot County,MD,"Talbot County, MD",-76.1319953,38.7803973
Westminster,MD,"Westminster, MD",-76.9958149,39.5753791
Woodstock,MD,"Woodstock, MD",-76.872796,39.328064
NA,MD,"NA, MD",-76.64127119999999,39.0457549
Acton (York County),ME,"Acton (York County), ME",-70.9277544,43.5233821
Alfred,ME,"Alfred, ME",-70.7161687,43.4764994
Allen's Mills,ME,"Allen's Mills, ME",-70.08117279999999,44.7161706
Andover,ME,"Andover, ME",-70.7511813,44.63561660000001
Atkinson,ME,"Atkinson, ME",-69.0910809,45.1868588
Auburn,ME,"Auburn, ME",-70.2311655,44.0978509
Augusta,ME,"Augusta, ME",-69.7794897,44.3106241
Bangor,ME,"Bangor, ME",-68.77781379999999,44.80118210000001
Bar Harbor,ME,"Bar Harbor, ME",-68.2039123,44.3876119
Bath,ME,"Bath, ME",-69.82060229999999,43.9106353
Belfast,ME,"Belfast, ME",-69.0064234,44.4259092
Bethel,ME,"Bethel, ME",-70.7898806,44.4044586
Biddeford,ME,"Biddeford, ME",-70.45338439999999,43.4925843
Biddleford,ME,"Biddleford, ME",-70.45338439999999,43.4925843
Blue Hill,ME,"Blue Hill, ME",-68.5866904,44.4139662
Bolster's Mills,ME,"Bolster's Mills, ME",-70.59728280000002,44.1156261
Boothbay,ME,"Boothbay, ME",-69.6337364,43.8762865
Brewer,ME,"Brewer, ME",-68.7614246,44.7967378
Bristol,ME,"Bristol, ME",-69.4954131,43.9248053
Brunswick,ME,"Brunswick, ME",-69.9669961,43.9140162
Bucksport,ME,"Bucksport, ME",-68.7701225,44.6289696
Buckstown,ME,"Buckstown, ME",NA,NA
Buxton,ME,"Buxton, ME",-70.5189422,43.6378583
Calais,ME,"Calais, ME",-67.27860380000001,45.1889633
Camden,ME,"Camden, ME",-69.0647838,44.2097928
Cape Elizabeth,ME,"Cape Elizabeth, ME",-70.2000467,43.563696
Castine,ME,"Castine, ME",-68.7989582,44.3888609
Cherryfield,ME,"Cherryfield, ME",-67.9258366,44.6072991
Chesterville,ME,"Chesterville, ME",-70.0861692,44.55117449999999
Corinna,ME,"Corinna, ME",-69.2617131,44.921174
Cornish,ME,"Cornish, ME",-70.8011731,43.80479769999999
Danforth,ME,"Danforth, ME",-67.86834499999999,45.6603404
Danville,ME,"Danville, ME",-70.2656097,44.02229639999999
Deering,ME,"Deering, ME",-70.2983825,43.6759147
Dexter,ME,"Dexter, ME",-69.2898156,45.02391799999999
Dirigo,ME,"Dirigo, ME",-70.4521048,44.5405302
Dover,ME,"Dover, ME",-69.22708209999999,45.1833421
Dresden,ME,"Dresden, ME",-69.7242215,44.1070945
East Machias,ME,"East Machias, ME",-67.3900603,44.7391789
East Wilton,ME,"East Wilton, ME",-70.19283899999999,44.6158945
Eastbrook,ME,"Eastbrook, ME",-68.26446179999999,44.6786857
Eastport,ME,"Eastport, ME",-66.98997849999999,44.9061906
Eliot,ME,"Eliot, ME",-70.8000544,43.1531427
Ellsworth,ME,"Ellsworth, ME",-68.4194641,44.5434095
Fairfield,ME,"Fairfield, ME",-69.59864689999999,44.5884052
Falmouth,ME,"Falmouth, ME",-70.2601759,43.7435343
Farmington,ME,"Farmington, ME",-70.1512169,44.67049979999999
Fort Preble,ME,"Fort Preble, ME",-70.2259813,43.6491177
Foxcroft,ME,"Foxcroft, ME",-69.22708209999999,45.1833421
Freeport,ME,"Freeport, ME",-70.1031201,43.8570065
Fryeburg,ME,"Fryeburg, ME",-70.9806357,44.0164329
Gardiner,ME,"Gardiner, ME",-69.77532219999999,44.2300698
Gardner,ME,"Gardner, ME",-69.77532219999999,44.2300698
Gorham,ME,"Gorham, ME",-70.44422519999999,43.67953139999999
Greathouse?,ME,"Greathouse?, ME",-77.24662210000001,17.9317723
Hallowell,ME,"Hallowell, ME",-69.7908786,44.2859022
Harrison,ME,"Harrison, ME",-70.6792289,44.1103479
Houlton,ME,"Houlton, ME",-67.8402316,46.1261806
Kennebunk,ME,"Kennebunk, ME",-70.54399,43.3845306
Kittery,ME,"Kittery, ME",-70.73613700000001,43.0881256
Kittery and York,ME,"Kittery and York, ME",-70.73613700000001,43.0881256
Lewiston,ME,"Lewiston, ME",-70.21477639999999,44.100351
Lewiston and Danville,ME,"Lewiston and Danville, ME",-70.25821839999999,44.0420735
Lewiston Falls,ME,"Lewiston Falls, ME",-70.2227211,44.0978181
Lewsiton,ME,"Lewsiton, ME",-70.21477639999999,44.100351
Lisbon,ME,"Lisbon, ME",-70.1043704,44.0316013
Livermore,ME,"Livermore, ME",-70.2081176,44.4078297
Machias,ME,"Machias, ME",-67.461376,44.71507889999999
New Gloucester,ME,"New Gloucester, ME",-70.2825536,43.962853
New Sharon,ME,"New Sharon, ME",-70.0154885,44.6393784
Newport,ME,"Newport, ME",-69.2444565,44.8557175
Norridgewock,ME,"Norridgewock, ME",-69.7905955,44.7130794
North Yarmouth,ME,"North Yarmouth, ME",-70.2388706,43.85735
Norway,ME,"Norway, ME",-70.5448096,44.2139566
Orno,ME,"Orno, ME",-68.6719411,44.8831125
Ossington,ME,"Ossington, ME",NA,NA
Paris,ME,"Paris, ME",-70.5006152,44.2597917
Parsonsfield,ME,"Parsonsfield, ME",-70.9286755,43.72702140000001
Pembroke,ME,"Pembroke, ME",-67.1619293,44.9536891
Portland,ME,"Portland, ME",-70.2553259,43.66147100000001
Prentiss,ME,"Prentiss, ME",-68.081681,45.4917309
Presque Isle,ME,"Presque Isle, ME",-68.0158615,46.68115299999999
Richmond,ME,"Richmond, ME",-69.80257879999999,44.0880682
Robbinston,ME,"Robbinston, ME",-67.10942829999999,45.0781324
Rockland,ME,"Rockland, ME",-69.1089293,44.1036914
Saccarappa,ME,"Saccarappa, ME",-70.3711617,43.6770252
Saco,ME,"Saco, ME",-70.4428286,43.5009176
Saco-Biddeford,ME,"Saco-Biddeford, ME",-70.4497928,43.4921364
Sanford,ME,"Sanford, ME",-70.7742804,43.4391627
Sangerville,ME,"Sangerville, ME",-69.357317,45.1645956
Searsport,ME,"Searsport, ME",-68.9241744,44.4583848
Sedgewick,ME,"Sedgewick, ME",-68.6155184,44.3040651
Sidney,ME,"Sidney, ME",-69.72262479999999,44.4530868
Skowhegan,ME,"Skowhegan, ME",-69.7193803,44.76503659999999
South Berwick,ME,"South Berwick, ME",-70.80950179999999,43.2345292
Thomaston,ME,"Thomaston, ME",-69.1816955,44.0789574
Togus,ME,"Togus, ME",-69.7030994,44.2745139
Turner,ME,"Turner, ME",-70.2561671,44.2564588
Union,ME,"Union, ME",-69.293927,44.2296917
Waldoboro,ME,"Waldoboro, ME",-69.37560169999999,44.0952725
"Waldoboro, Warren and Thomaston",ME,"Waldoboro, Warren and Thomaston, ME",-69.1603092,44.0647028
Warren,ME,"Warren, ME",-69.25314639999999,44.116967
Warren and Thomaston,ME,"Warren and Thomaston, ME",-69.10887699999999,44.1132883
Washburn,ME,"Washburn, ME",-68.1567015,46.7882172
Washington,ME,"Washington, ME",-69.3676576,44.2735583
Waterville,ME,"Waterville, ME",-69.6317121,44.5520105
Waverly,ME,"Waverly, ME",-69.38060349999999,44.7950639
Wayne,ME,"Wayne, ME",-70.06616489999999,44.3486793
Wells,ME,"Wells, ME",-70.5805209,43.3222329
Westbrook,ME,"Westbrook, ME",-70.3711617,43.6770252
Winterport,ME,"Winterport, ME",-68.8449792,44.6377864
Winthrop,ME,"Winthrop, ME",-69.9769721,44.3050332
Wiscasset,ME,"Wiscasset, ME",-69.665583,44.0028921
Yarmouth,ME,"Yarmouth, ME",-70.18672269999999,43.8006208
NA,ME,"NA, ME",-104.9923025,39.7413684
Ada,MI,"Ada, MI",-85.4954803,42.960727
Adams,MI,"Adams, MI",-84.52578299999999,41.9708795
Addison,MI,"Addison, MI",-84.3471684,41.986434
Adgansee,MI,"Adgansee, MI",-84.87763919999999,41.8651724
Adrian,MI,"Adrian, MI",-84.03716589999999,41.8975471
Adrian City,MI,"Adrian City, MI",-84.03716589999999,41.8975471
Advian,MI,"Advian, MI",-84.03716589999999,41.8975471
Akron,MI,"Akron, MI",-83.5141259,43.5680758
Alaiedon,MI,"Alaiedon, MI",-84.41726659999999,42.630465
Alamo,MI,"Alamo, MI",-85.7051116,42.3725805
Albion,MI,"Albion, MI",-84.7530304,42.243097
Albion College,MI,"Albion College, MI",-84.7451775,42.2440064
Algoma,MI,"Algoma, MI",-85.62292959999999,43.1492928
Allegan,MI,"Allegan, MI",-85.8553031,42.5291989
Allen,MI,"Allen, MI",-84.7677394,41.9569915
Allendale,MI,"Allendale, MI",-85.9540407,42.97219339999999
Allison,MI,"Allison, MI",-83.34024749999999,42.52044739999999
Alma,MI,"Alma, MI",-84.6597274,43.3789199
Almena,MI,"Almena, MI",-85.8281458,42.2984842
Almer,MI,"Almer, MI",-83.4003037,43.5431537
Almont,MI,"Almont, MI",-83.0449347,42.92058420000001
Alpena,MI,"Alpena, MI",-83.4327528,45.0616794
Alpine,MI,"Alpine, MI",-85.71438529999999,43.0662253
Amboy,MI,"Amboy, MI",-84.59557319999999,41.7233115
Ann Arbor,MI,"Ann Arbor, MI",-83.7430378,42.2808256
Ann Arbor City,MI,"Ann Arbor City, MI",-83.7430378,42.2808256
Antrim,MI,"Antrim, MI",-85.1769095,44.9730441
Antwerp,MI,"Antwerp, MI",-85.80766,42.1992857
Arbela,MI,"Arbela, MI",-83.6561215,43.2502773
Arcadia,MI,"Arcadia, MI",-86.2353862,44.4919144
Argentine,MI,"Argentine, MI",-83.8685072,42.8361329
Arlington,MI,"Arlington, MI",-86.05296039999999,42.2867499
Armada,MI,"Armada, MI",-82.8843722,42.8441964
Ash,MI,"Ash, MI",-83.2265961,42.5804438
Ashland,MI,"Ashland, MI",-85.8690933,43.3515379
Assyria,MI,"Assyria, MI",-85.1271907,42.4672272
Athens,MI,"Athens, MI",-85.2347051,42.0886576
Atkins,MI,"Atkins, MI",-82.5768666,43.0630836
Atlas,MI,"Atlas, MI",-83.528342,42.9338612
Attica,MI,"Attica, MI",-83.1434573,43.0276207
Augusta,MI,"Augusta, MI",-85.35222189999999,42.3364294
Aurelius,MI,"Aurelius, MI",-84.54318669999999,42.55838019999999
Austin,MI,"Austin, MI",-82.994114,44.04612530000001
Avon,MI,"Avon, MI",-85.69018059999999,43.0483065
Bainbridge,MI,"Bainbridge, MI",-86.2767995,42.1167965
Baltimore,MI,"Baltimore, MI",-82.7368616,42.6811436
Bangor,MI,"Bangor, MI",-86.11307939999999,42.3125355
Bartlett,MI,"Bartlett, MI",-85.0941229,45.1381416
Batavia,MI,"Batavia, MI",-85.1271907,41.9552253
Bath,MI,"Bath, MI",-84.4485591,42.8187367
Battle Creek,MI,"Battle Creek, MI",-85.17971419999999,42.3211522
Bay City,MI,"Bay City, MI",-83.8888647,43.5944677
Bear Lake,MI,"Bear Lake, MI",-86.14814299999999,44.4208349
Bedford,MI,"Bedford, MI",-83.5885144,41.760608
Bellevue,MI,"Bellevue, MI",-85.0180464,42.4433716
Bengal,MI,"Bengal, MI",-84.6688348,42.9926576
Bennington,MI,"Bennington, MI",-84.2278796,42.9130799
Benona,MI,"Benona, MI",-86.4794359,43.6026691
Benton,MI,"Benton, MI",-83.7049498,42.7978061
Berlin,MI,"Berlin, MI",-82.9164749,42.9384066
Berrien,MI,"Berrien, MI",-86.7416374,42.0320742
Bertrand,MI,"Bertrand, MI",-86.3680869,41.7929019
Bethany,MI,"Bethany, MI",-84.54318669999999,43.411528
Bethel,MI,"Bethel, MI",-85.1271907,41.8363717
Big Prairie,MI,"Big Prairie, MI",-85.62292959999999,43.4963468
Big Rapids,MI,"Big Rapids, MI",-85.4836557,43.6980782
Bingham,MI,"Bingham, MI",-85.6640365,44.899234
Birch,MI,"Birch, MI",-83.7941309,43.2508585
Birmingham,MI,"Birmingham, MI",-83.21131919999999,42.5467012
Blackman,MI,"Blackman, MI",-84.4592701,42.2799168
Blendon,MI,"Blendon, MI",-85.95089229999999,42.8897472
Blissfield,MI,"Blissfield, MI",-83.8624411,41.8325486
Bloomer,MI,"Bloomer, MI",-84.87763919999999,43.1570732
Bloomfield,MI,"Bloomfield, MI",-83.2827093,42.5793103
Bloomingdale,MI,"Bloomingdale, MI",-85.95696749999999,42.3828129
Blumfield,MI,"Blumfield, MI",-83.7411631,43.4472926
Boston,MI,"Boston, MI",-83.4027844,42.1626843
Bowen Mills,MI,"Bowen Mills, MI",-85.5188184,42.6553368
Bowne,MI,"Bowne, MI",-85.37562489999999,42.8290778
Brady,MI,"Brady, MI",-85.45818589999999,42.1268486
Brant,MI,"Brant, MI",-84.2489525,43.2430662
Bridgehampton,MI,"Bridgehampton, MI",-82.713132,43.4630538
Bridgeport,MI,"Bridgeport, MI",-83.88163639999999,43.3594696
Bridgewater,MI,"Bridgewater, MI",-83.9532571,42.1363172
Brighton,MI,"Brighton, MI",-83.7802214,42.5294773
Brockway,MI,"Brockway, MI",-82.8425216,43.1250863
Bronson,MI,"Bronson, MI",-85.19469629999999,41.8722716
Brookfield,MI,"Brookfield, MI",-84.79420909999999,42.4526037
Brooks,MI,"Brooks, MI",-85.7461548,43.4240742
Brown,MI,"Brown, MI",-82.9896604,43.2122486
Brownstown,MI,"Brownstown, MI",-83.2572332,42.1261157
Bruce,MI,"Bruce, MI",-83.03613759999999,42.8467589
Buchanan,MI,"Buchanan, MI",-86.3611248,41.8272684
Buel,MI,"Buel, MI",-82.713132,43.3095052
Buena,MI,"Buena, MI",-83.8863428,43.4508281
Bunkerhill,MI,"Bunkerhill, MI",-84.2910759,42.4678405
Burch Run,MI,"Burch Run, MI",-83.7941309,43.2508585
Burchville,MI,"Burchville, MI",-82.50775929999999,43.1132642
Burlington,MI,"Burlington, MI",-85.07969880000002,42.1067125
Burns,MI,"Burns, MI",-83.9744262,42.8223201
Burnside,MI,"Burnside, MI",-83.05761559999999,43.2154902
Burr,MI,"Burr, MI",-85.31858989999999,41.8472719
Burton,MI,"Burton, MI",-83.6163423,42.99947179999999
Bushnell,MI,"Bushnell, MI",-85.0025539,43.1625919
Butler,MI,"Butler, MI",-84.87763919999999,42.02346319999999
Byron,MI,"Byron, MI",-83.9444027,42.8228091
Caledonia,MI,"Caledonia, MI",-85.5166864,42.7891985
California,MI,"California, MI",-84.87763919999999,41.78585289999999
Calumet,MI,"Calumet, MI",-88.45400599999999,47.24659219999999
Calvin,MI,"Calvin, MI",-85.95089229999999,41.8683095
Cambria,MI,"Cambria, MI",-84.6688348,41.8556792
Cambridge,MI,"Cambridge, MI",-84.20679919999999,42.0310851
Camden,MI,"Camden, MI",-84.7577335,41.7522716
Campbell,MI,"Campbell, MI",-85.2515482,42.8240067
Cannon,MI,"Cannon, MI",-85.49941919999999,43.0670601
Canton,MI,"Canton, MI",-83.48211599999999,42.3086444
Capac,MI,"Capac, MI",-82.93447909999999,43.0125509
Carlton,MI,"Carlton, MI",-83.3907658,42.0592101
Carmel,MI,"Carmel, MI",-84.9193082,42.5365399
Cascade,MI,"Cascade, MI",-85.5296527,42.9129268
Casco,MI,"Casco, MI",-82.669947,42.76561299999999
Casinovia,MI,"Casinovia, MI",-85.79060059999999,43.2347449
Cassopolis,MI,"Cassopolis, MI",-86.0100068,41.9117133
Castleton,MI,"Castleton, MI",-85.1271907,42.623771
Cato,MI,"Cato, MI",-85.2515482,43.443107
Cazenovia,MI,"Cazenovia, MI",-75.8336952,42.9462929
Centreville,MI,"Centreville, MI",-85.5283225,41.9233827
Charleston,MI,"Charleston, MI",-85.37562489999999,42.2811597
Charleviox,MI,"Charleviox, MI",-85.2584004,45.3180632
Charlotte,MI,"Charlotte, MI",-84.83582109999999,42.5636478
Cheshire,MI,"Cheshire, MI",-85.95089229999999,42.4600216
Chesseming,MI,"Chesseming, MI",NA,NA
Chester,MI,"Chester, MI",-85.8690933,43.158429
Chesterfield,MI,"Chesterfield, MI",-82.79941939999999,42.6960659
Chickaming,MI,"Chickaming, MI",-86.61734469999999,41.8564175
China,MI,"China, MI",-82.5402275,42.7572207
Chippewa,MI,"Chippewa, MI",-84.59320939999999,46.3117082
Clarence,MI,"Clarence, MI",-84.79420909999999,42.3741594
Clarendon,MI,"Clarendon, MI",-84.87763919999999,42.1024341
Clay,MI,"Clay, MI",-82.5918153,42.6107495
Clayton,MI,"Clayton, MI",-84.2363347,41.8633809
Climax,MI,"Climax, MI",-85.33499479999999,42.2383765
Clinton,MI,"Clinton, MI",-83.9716095,42.0719866
Coe,MI,"Coe, MI",-84.6688348,43.4943005
Cohoctah (Cohocta),MI,"Cohoctah (Cohocta), MI",-83.99558789999999,42.7261394
Coldwater,MI,"Coldwater, MI",-85.00052149999999,41.9403263
Colon,MI,"Colon, MI",-85.3249817,41.9583822
Columbia,MI,"Columbia, MI",-92.3340724,38.9517053
Columbus,MI,"Columbus, MI",-82.669947,42.8432693
Commerce,MI,"Commerce, MI",-83.48823469999999,42.5750853
Comstock,MI,"Comstock, MI",-85.45818589999999,42.2844539
Concord,MI,"Concord, MI",-84.6430206,42.1778187
Constantine,MI,"Constantine, MI",-85.6686026,41.8411603
Convis,MI,"Convis, MI",-85.0025539,42.3834206
Conway,MI,"Conway, MI",-84.0801613,42.7305418
Cooper,MI,"Cooper, MI",-85.58179109999999,42.3679028
Cooper Harbor,MI,"Cooper Harbor, MI",-87.8903203,47.4683113
Corunna,MI,"Corunna, MI",-84.117745,42.98197280000001
Cotterville,MI,"Cotterville, MI",-82.53703010000001,42.6923207
Courtland,MI,"Courtland, MI",-85.49941919999999,43.144509
Crockery,MI,"Crockery, MI",-86.0733498,43.0881546
Croton,MI,"Croton, MI",-85.62292959999999,43.4194319
Crystal,MI,"Crystal, MI",-84.87763919999999,43.2343398
Dallas,MI,"Dallas, MI",-84.79420909999999,42.998424
Danby,MI,"Danby, MI",-84.87763919999999,42.8079095
Davison,MI,"Davison, MI",-83.5180063,43.0347491
Dearborn,MI,"Dearborn, MI",-83.17631449999999,42.3222599
Decatur,MI,"Decatur, MI",-85.97445689999999,42.1080979
Deerfield,MI,"Deerfield, MI",-83.77882830000001,41.888936
Delhi,MI,"Delhi, MI",-84.5327038,42.6262669
Delta,MI,"Delta, MI",-84.6620322,42.7265775
Denmark,MI,"Denmark, MI",-83.6561215,43.4426042
Denver,MI,"Denver, MI",-85.9917437,43.58664419999999
Detriot,MI,"Detriot, MI",-83.0457538,42.331427
Detroit,MI,"Detroit, MI",-83.0457538,42.331427
Dewitt,MI,"Dewitt, MI",-84.56914870000001,42.842256
Dexter,MI,"Dexter, MI",-83.8885552,42.33836970000001
Donn,MI,"Donn, MI",-83.7276716,42.2843246
Dover,MI,"Dover, MI",-84.16461629999999,41.87079440000001
Dowagiac,MI,"Dowagiac, MI",-86.10862279999999,41.9842123
Dryden,MI,"Dryden, MI",-83.12382649999999,42.9461395
Dundee,MI,"Dundee, MI",-83.6596596,41.9572676
Duplain,MI,"Duplain, MI",-84.41726659999999,43.05817039999999
Dwight,MI,"Dwight, MI",-82.92864279999999,43.9723794
Eagle,MI,"Eagle, MI",-84.7902953,42.810055
East Saginaw,MI,"East Saginaw, MI",-83.9508068,43.4194699
Easton,MI,"Easton, MI",-85.1375645,43.0038138
Eaton,MI,"Eaton, MI",-84.7733325,42.5886496
Eaton Rapids,MI,"Eaton Rapids, MI",-84.65581399999999,42.5092039
Eckford,MI,"Eckford, MI",-84.87763919999999,42.2206719
Ecorse,MI,"Ecorse, MI",-83.1457569,42.2444833
Elba,MI,"Elba, MI",-83.4003037,43.0040349
Elk Rapids,MI,"Elk Rapids, MI",-85.4164605,44.8955578
Emerson,MI,"Emerson, MI",-84.54318669999999,43.3345606
Emmet,MI,"Emmet, MI",-82.7649266,42.9905832
Ensley,MI,"Ensley, MI",-85.62292959999999,43.34239789999999
Erie,MI,"Erie, MI",-83.4968452,41.7939829
Erin,MI,"Erin, MI",-84.162165,42.013863
Essex,MI,"Essex, MI",-84.6688348,43.0701592
Essexville,MI,"Essexville, MI",-83.8419193,43.6153004
Eureka,MI,"Eureka, MI",-85.26189869999999,43.1446062
Everett,MI,"Everett, MI",-85.7461548,43.5009898
Evergreen,MI,"Evergreen, MI",-83.05761559999999,43.5611218
Exeter,MI,"Exeter, MI",-83.4856913,42.03188249999999
Fabius,MI,"Fabius, MI",-85.7051116,41.9386707
Fair Grove,MI,"Fair Grove, MI",-83.54329249999999,43.5236323
Fairfield,MI,"Fairfield, MI",-84.0801613,41.7475551
Fairplan,MI,"Fairplan, MI",-86.455855,42.0869852
Farmington,MI,"Farmington, MI",-83.37632180000001,42.4644795
Fawn River,MI,"Fawn River, MI",-85.6603739,41.8457601
Fayette,MI,"Fayette, MI",-86.6689968,45.7178999
Fenton,MI,"Fenton, MI",-83.7049498,42.7978061
Fillmore,MI,"Fillmore, MI",-86.0631561,42.7085272
Flint,MI,"Flint, MI",-83.6874562,43.0125274
Flint City,MI,"Flint City, MI",-83.6874562,43.0125274
Florence,MI,"Florence, MI",-85.58179109999999,41.8547298
Flowerfield,MI,"Flowerfield, MI",-85.7051116,42.0178261
Flushing,MI,"Flushing, MI",-83.8510732,43.0630833
Forest,MI,"Forest, MI",-83.528342,43.165979
Forester,MI,"Forester, MI",-82.6159271,43.5238342
Frankenmuth,MI,"Frankenmuth, MI",-83.7380194,43.331691
Frankfort,MI,"Frankfort, MI",-86.23453959999999,44.6336096
Franklin,MI,"Franklin, MI",-83.30604319999999,42.5222567
Fredonia,MI,"Fredonia, MI",-85.0025539,42.1867919
Freedom,MI,"Freedom, MI",-83.9532571,42.2150427
Fremon,MI,"Fremon, MI",-85.9420013,43.4675173
Fremont,MI,"Fremont, MI",-85.9420013,43.4675173
Ft. Brady,MI,"Ft. Brady, MI",-84.3634015,46.4921067
Fulton,MI,"Fulton, MI",-85.3536207,42.114957
Gaines,MI,"Gaines, MI",-83.9141254,42.8725303
Galien,MI,"Galien, MI",-86.4991852,41.7981008
Ganges,MI,"Ganges, MI",-86.210319,42.5769685
Genesee,MI,"Genesee, MI",-83.6135572,43.0935147
Georgetown,MI,"Georgetown, MI",-85.8299053,42.8999725
Gilead,MI,"Gilead, MI",-85.116815,41.7863322
Gilford,MI,"Gilford, MI",-83.6561215,43.5193276
Girard,MI,"Girard, MI",-85.0025539,42.0289635
Glen Arbor,MI,"Glen Arbor, MI",-85.98885279999999,44.8977314
Goodland,MI,"Goodland, MI",-83.05761559999999,43.0997482
Grand  Blanc,MI,"Grand  Blanc, MI",-83.6299518,42.9275277
Grand Blanc,MI,"Grand Blanc, MI",-83.6299518,42.9275277
Grand Rapids,MI,"Grand Rapids, MI",-85.6680863,42.9633599
Grand Rapids City,MI,"Grand Rapids City, MI",-85.6680863,42.9633599
Grass Lake,MI,"Grass Lake, MI",-84.20395429999999,42.2548238
Grattan,MI,"Grattan, MI",-85.37562489999999,43.062132
Green,MI,"Green, MI",-83.76728299999999,42.443471
Green Oak,MI,"Green Oak, MI",-83.7411631,42.4782758
Greenbush,MI,"Greenbush, MI",-83.357567,44.56395939999999
Greenfield,MI,"Greenfield, MI",-83.23420589999999,42.3034513
Greenland,MI,"Greenland, MI",-89.05569940000001,46.8020307
Greenville,MI,"Greenville, MI",-85.2527987,43.1775314
Greenwood,MI,"Greenwood, MI",-82.713132,43.1169057
Grosssepoint,MI,"Grosssepoint, MI",-82.9118591,42.3861485
Groveland,MI,"Groveland, MI",-83.528342,42.8174048
Gun Plain,MI,"Gun Plain, MI",-85.58179109999999,42.4856255
Hadley,MI,"Hadley, MI",-83.4003037,42.9265459
Hagan,MI,"Hagan, MI",-84.4715045,42.7321343
Hamburg,MI,"Hamburg, MI",-83.8510786,42.4641977
Hamilton,MI,"Hamilton, MI",-85.9987285,42.671257
Hampton,MI,"Hampton, MI",-83.7836403,43.6411989
Hamtramck,MI,"Hamtramck, MI",-83.0496438,42.3928151
Hancock,MI,"Hancock, MI",-88.5809563,47.1268714
Handy,MI,"Handy, MI",-84.0801613,42.6525748
Hanover,MI,"Hanover, MI",-84.5519003,42.1011532
Harrison,MI,"Harrison, MI",-84.7994675,44.0191862
Harrisville,MI,"Harrisville, MI",-83.2946891,44.6564022
Hartford,MI,"Hartford, MI",-86.1666876,42.2067051
Hartland,MI,"Hartland, MI",-83.7507315,42.6315066
Harvey,MI,"Harvey, MI",-87.3543071,46.4946573
Hazleton,MI,"Hazleton, MI",-75.9671199,40.9613814
Heath,MI,"Heath, MI",-85.9987285,42.671257
Henrietta,MI,"Henrietta, MI",-84.2910759,42.3894607
Hickory Corners,MI,"Hickory Corners, MI",-85.3760882,42.4415829
Highland,MI,"Highland, MI",-83.6175677,42.6380014
Hillsdale,MI,"Hillsdale, MI",-84.6305101,41.9200472
Holland,MI,"Holland, MI",-86.1089301,42.7875235
Holland City,MI,"Holland City, MI",-86.1089301,42.7875235
Holley,MI,"Holley, MI",-83.6277255,42.7919727
Holmes,MI,"Holmes, MI",-87.6920967,45.5396966
Homer,MI,"Homer, MI",-84.80886,42.145877
Hope,MI,"Hope, MI",-84.3331694,43.784365
Hopkins,MI,"Hopkins, MI",-85.7603024,42.6236425
Houghton,MI,"Houghton, MI",-88.5694182,47.12113309999999
Howard,MI,"Howard, MI",-85.467815,43.3955831
Howell,MI,"Howell, MI",-83.9293952,42.6072552
Hudson,MI,"Hudson, MI",-84.35383589999999,41.8550479
Huron,MI,"Huron, MI",-82.82097399999999,43.9466791
Ida,MI,"Ida, MI",-83.57096399999999,41.8786731
Imlay,MI,"Imlay, MI",-83.01465259999999,43.0198219
Independence,MI,"Independence, MI",-83.3830529,42.7400888
Indian Fields,MI,"Indian Fields, MI",-83.4003037,43.46649170000001
Ingersoll,MI,"Ingersoll, MI",-84.2489525,43.51234059999999
Ingham,MI,"Ingham, MI",-84.3542049,42.6468943
Ionia,MI,"Ionia, MI",-85.07111739999999,42.9872547
Iosco,MI,"Iosco, MI",-83.63862259999999,44.3340462
Ira,MI,"Ira, MI",-82.669947,42.6878396
Irving,MI,"Irving, MI",-85.37562489999999,42.712152
Ishpeming,MI,"Ishpeming, MI",-87.6676358,46.4885469
Jackson,MI,"Jackson, MI",-84.40134619999999,42.245869
Jackson City,MI,"Jackson City, MI",-84.40134619999999,42.245869
Jamestown,MI,"Jamestown, MI",-85.8425336,42.82558239999999
Jefferson,MI,"Jefferson, MI",-84.54318669999999,41.849783
Jerome,MI,"Jerome, MI",-84.4693935,42.0269888
Johnstown,MI,"Johnstown, MI",-85.2515482,42.4724397
Jonesville,MI,"Jonesville, MI",-84.6619015,41.9842131
Juniatta,MI,"Juniatta, MI",-83.528342,43.4354397
Kalamazoo,MI,"Kalamazoo, MI",-85.5872286,42.2917069
Kalamo,MI,"Kalamo, MI",-85.0025539,42.5401965
Keeler,MI,"Keeler, MI",-86.15482689999999,42.1127832
Keene,MI,"Keene, MI",-85.2515482,42.9794925
Kenockee,MI,"Kenockee, MI",-82.713132,43.03965970000001
Kimball,MI,"Kimball, MI",-82.5402275,42.9511374
Kinderhook,MI,"Kinderhook, MI",-84.9921549,41.7809727
La Grange,MI,"La Grange, MI",-86.0325629,41.9504291
Lacota,MI,"Lacota, MI",-86.1297501,42.4136434
Lafayette,MI,"Lafayette, MI",-84.41726659999999,43.3284866
Lake,MI,"Lake, MI",-87.22201869999999,43.4501005
Lansing,MI,"Lansing, MI",-84.5555347,42.732535
Lapeer,MI,"Lapeer, MI",-83.31883409999999,43.0514161
LaSalle,MI,"LaSalle, MI",-83.45215549999999,41.8678237
Lawrence,MI,"Lawrence, MI",-86.051408,42.2192056
Lebanon,MI,"Lebanon, MI",-92.6637865,37.6805967
Lee,MI,"Lee, MI",-86.0908621,42.450865
Leelanaw,MI,"Leelanaw, MI",-86.07336339999999,45.0821226
Leighton,MI,"Leighton, MI",-85.62292959999999,42.7218544
Lenox,MI,"Lenox, MI",-82.79941939999999,42.7738411
Leoni,MI,"Leoni, MI",-84.31184209999999,42.2545116
Leonidas,MI,"Leonidas, MI",-85.3342973,42.0429093
LeRoy,MI,"LeRoy, MI",-85.4539403,44.03806890000001
Leslie,MI,"Leslie, MI",-84.4324695,42.4514252
Lexington,MI,"Lexington, MI",-82.530757499999993,43.268082
Liberty,MI,"Liberty, MI",-84.41726659999999,42.1204171
Lima,MI,"Lima, MI",-83.9532571,42.2936518
Lindon,MI,"Lindon, MI",-83.7824526,42.8144731
Litchfield,MI,"Litchfield, MI",-84.7574647,42.0439345
Livonia,MI,"Livonia, MI",-83.35270969999999,42.36837
Locke,MI,"Locke, MI",-84.20679919999999,42.7370163
Lodi,MI,"Lodi, MI",-83.8260884,42.2082681
London,MI,"London, MI",-83.6135572,42.039072
Lowell,MI,"Lowell, MI",-85.34196089999999,42.9336426
Ludington,MI,"Ludington, MI",-86.4525831,43.9552825
Lynn,MI,"Lynn, MI",-82.92864279999999,43.1304493
Lyon,MI,"Lyon, MI",-83.6135572,42.4712338
Lyons,MI,"Lyons, MI",-84.9469455,42.9819772
Mackinak,MI,"Mackinak, MI",-84.6275658,45.8683129
Macomb,MI,"Macomb, MI",-82.92864279999999,42.6651965
Manchester,MI,"Manchester, MI",-84.037723,42.1503177
Manistee,MI,"Manistee, MI",-86.324253,44.2444473
Manlius,MI,"Manlius, MI",-86.0733498,42.6209518
Maple Grove,MI,"Maple Grove, MI",-85.1271907,42.5455578
Marathon,MI,"Marathon, MI",-83.4003037,43.1972421
Marcellus,MI,"Marcellus, MI",-85.81555759999999,42.0258779
Marengo,MI,"Marengo, MI",-84.87763919999999,42.2993512
Marion,MI,"Marion, MI",-85.14698349999999,44.1025148
Marquette,MI,"Marquette, MI",-87.39559539999999,46.5475825
Marshall,MI,"Marshall, MI",-84.96331479999999,42.2722641
Martin,MI,"Martin, MI",-85.64168459999999,42.5369783
Mason,MI,"Mason, MI",-84.4435845,42.5792027
Matteson,MI,"Matteson, MI",-85.2308414,41.9397806
Medina,MI,"Medina, MI",-84.2910759,41.75822489999999
Megeezee,MI,"Megeezee, MI",NA,NA
Mendon,MI,"Mendon, MI",-85.44998869999999,42.0064378
Meridian,MI,"Meridian, MI",-84.41506439999999,42.7265389
Metamora,MI,"Metamora, MI",-83.2891092,42.9414173
Middlebury,MI,"Middlebury, MI",-84.3331694,43.0153041
Midland,MI,"Midland, MI",-84.2472116,43.6155825
Milan,MI,"Milan, MI",-83.6824384,42.0853204
Milford,MI,"Milford, MI",-83.6003703,42.5916684
Milton,MI,"Milton, MI",-85.3312715,44.923442
Monguagon,MI,"Monguagon, MI",-83.20712859999999,42.0845244
Monroe,MI,"Monroe, MI",-83.3977101,41.9164343
Monroe City,MI,"Monroe City, MI",-83.3977101,41.9164343
Montcalm,MI,"Montcalm, MI",-85.1894045,43.3057341
Monterey,MI,"Monterey, MI",-85.8281458,42.6513977
Montrose,MI,"Montrose, MI",-83.8927439,43.1766935
Moscow,MI,"Moscow, MI",-84.54318669999999,42.0475624
Mottville,MI,"Mottville, MI",-85.7051116,41.78001099999999
Mount Clemens,MI,"Mount Clemens, MI",-82.8779754,42.5972563
Mount Morris,MI,"Mount Morris, MI",-83.6949583,43.1186374
Mundy,MI,"Mundy, MI",-83.7411631,42.9069105
Muskegon,MI,"Muskegon, MI",-86.24839209999999,43.2341813
Mussey,MI,"Mussey, MI",-82.92864279999999,43.0145327
Nankin,MI,"Nankin, MI",-83.37016779999999,42.3487847
Napoleon,MI,"Napoleon, MI",-84.2460616,42.1605944
Neguanee,MI,"Neguanee, MI",-87.60687209999999,46.5090928
Nelson,MI,"Nelson, MI",-85.49941919999999,43.2604599
New Buffalo,MI,"New Buffalo, MI",-86.74391539999999,41.7939302
New Haven,MI,"New Haven, MI",-82.8013107,42.7294758
Newark,MI,"Newark, MI",-84.7097259,43.2486435
Newburgh,MI,"Newburgh, MI",-83.4236632,42.36564600000001
Newton,MI,"Newton, MI",-85.1271907,42.1921471
Niles,MI,"Niles, MI",-86.2541768,41.829769400000004
Niles City,MI,"Niles City, MI",-86.2541768,41.829769400000004
Noble,MI,"Noble, MI",-85.2411958,41.7915445
North Branch,MI,"North Branch, MI",-83.19661169999999,43.2294705
North Plains,MI,"North Plains, MI",-84.87763919999999,43.0796882
North Shade,MI,"North Shade, MI",-84.79420909999999,43.153311
North Star,MI,"North Star, MI",-84.54318669999999,43.25747440000001
Northfield,MI,"Northfield, MI",-83.7433813,42.4003857
Northport,MI,"Northport, MI",-85.6167509,45.1313875
Novi,MI,"Novi, MI",-83.4754913,42.48059
Oakfield,MI,"Oakfield, MI",-85.37562489999999,43.1782596
Oakland,MI,"Oakland, MI",-83.1434573,42.7561109
Oceana,MI,"Oceana, MI",-86.2895052,43.643476
Odessa,MI,"Odessa, MI",-85.1271907,42.818789
Ogden,MI,"Ogden, MI",-83.9532571,41.7806149
Olive,MI,"Olive, MI",-86.1239988,42.8852254
Olivet,MI,"Olivet, MI",-84.92415419999999,42.4414273
Oneida,MI,"Oneida, MI",-84.79420909999999,42.7262349
Onondaga,MI,"Onondaga, MI",-84.5621963,42.4442037
Ontwa,MI,"Ontwa, MI",-86.0427626,41.7821811
Orange,MI,"Orange, MI",-85.0025539,42.8912233
Orangeville,MI,"Orangeville, MI",-85.49941919999999,42.5607601
Oranokogo,MI,"Oranokogo, MI",NA,NA
Orchard Lake,MI,"Orchard Lake, MI",-83.3735966,42.5894857
Oregon,MI,"Oregon, MI",-83.4003037,43.081406200000004
Orion,MI,"Orion, MI",-83.2720082,42.7637431
Orleans,MI,"Orleans, MI",-85.1271907,43.090575
Osceola,MI,"Osceola, MI",-85.35496499999999,43.92572790000001
Oshtemo,MI,"Oshtemo, MI",-85.7051116,42.293951
Otisco,MI,"Otisco, MI",-85.2627949,43.0594759
Otsego,MI,"Otsego, MI",-85.696406,42.4605904
Ottawa,MI,"Ottawa, MI",-86.0937312,42.95302299999999
Overisel,MI,"Overisel, MI",-85.95089229999999,42.7338962
Ovid,MI,"Ovid, MI",-84.3716438,43.0058618
Owasso,MI,"Owasso, MI",-84.1766358,42.9978049
Owosso,MI,"Owosso, MI",-84.1766358,42.9978049
Oxford,MI,"Oxford, MI",-83.26466239999999,42.8247524
Palmyra,MI,"Palmyra, MI",-83.9532571,41.8598626
Paris,MI,"Paris, MI",-82.79941939999999,43.7361035
Park,MI,"Park, MI",-85.04380979999999,45.23560579999999
Parma,MI,"Parma, MI",-84.5996885,42.2583711
Pavillion,MI,"Pavillion, MI",-85.45818589999999,42.2057097
Peninsula,MI,"Peninsula, MI",-87.3952109,46.5374764
Penn,MI,"Penn, MI",-85.95089229999999,41.9475839
Pennfield,MI,"Pennfield, MI",-85.129834,42.3699055
Perry,MI,"Perry, MI",-84.21941269999999,42.8264205
Pine Grove,MI,"Pine Grove, MI",-85.8281458,42.377115
Pine Plains,MI,"Pine Plains, MI",-86.03420009999999,42.6028065
Pine River,MI,"Pine River, MI",-85.9075725,44.2269504
Pipestone,MI,"Pipestone, MI",-86.2767995,42.0377521
Pittsfield,MI,"Pittsfield, MI",-83.7241068,42.2103174
Pittsford,MI,"Pittsford, MI",-84.41726659999999,41.8437355
Plainfield,MI,"Plainfield, MI",-85.61384699999999,43.0582815
Plainwell,MI,"Plainwell, MI",-85.6489035,42.4400357
Plymouth,MI,"Plymouth, MI",-83.4702132,42.3714253
Pokagon,MI,"Pokagon, MI",-86.15482689999999,41.9545798
Polkton,MI,"Polkton, MI",-85.9917437,43.0465604
Pontiac,MI,"Pontiac, MI",-83.29104679999999,42.6389216
Port Huron,MI,"Port Huron, MI",-82.42491419999999,42.9708634
Portage,MI,"Portage, MI",-85.5800022,42.2011538
Porter,MI,"Porter, MI",-85.8281458,41.82424510000001
Portland,MI,"Portland, MI",-84.9100792,42.8672048
Prairie Ronde,MI,"Prairie Ronde, MI",-85.7051116,42.0968649
Prairieville,MI,"Prairieville, MI",-85.49941919999999,42.4824259
Pulaski,MI,"Pulaski, MI",-84.6688348,42.132373
Putnam,MI,"Putnam, MI",-83.9532571,42.4505198
Quincy,MI,"Quincy, MI",-84.8838525,41.9442145
Raisin,MI,"Raisin, MI",-83.9532571,41.93899469999999
Raisinville,MI,"Raisinville, MI",-83.528342,41.955345199999996
Ransom,MI,"Ransom, MI",-84.54318669999999,41.7704682
Ravenna,MI,"Ravenna, MI",-85.93699289999999,43.1894651
Ray,MI,"Ray, MI",-82.92864279999999,42.743032
Reading,MI,"Reading, MI",-84.74801339999999,41.8394928
Redford,MI,"Redford, MI",-83.2973732,42.3944486
Richfield,MI,"Richfield, MI",-83.528342,43.0887243
Richland,MI,"Richland, MI",-85.45500539999999,42.3761504
Richmond,MI,"Richmond, MI",-82.7557554,42.8091969
Ridgeway,MI,"Ridgeway, MI",-83.8260884,41.9717483
Riga,MI,"Riga, MI",-83.8260884,41.77385109999999
Riley,MI,"Riley, MI",-82.79941939999999,42.9290398
Rives,MI,"Rives, MI",-84.41726659999999,42.3956724
Robinson,MI,"Robinson, MI",-86.0733498,42.9717532
Rochester,MI,"Rochester, MI",-83.1338214,42.680588
Rockland,MI,"Rockland, MI",-89.1795511,46.7380483
Rodney,MI,"Rodney, MI",-85.3296892,43.6727174
Rogers,MI,"Rogers, MI",-83.8605137,45.42650769999999
Rollin,MI,"Rollin, MI",-84.3239029,41.9112338
Rome,MI,"Rome, MI",-84.20679919999999,41.9520652
Romulus,MI,"Romulus, MI",-83.39659940000001,42.2222614
Ronald,MI,"Ronald, MI",-85.0025539,43.0852059
Rose,MI,"Rose, MI",-84.0801613,44.4534954
Ross,MI,"Ross, MI",-85.37562489999999,42.359786
Roxand,MI,"Roxand, MI",-84.87763919999999,42.729993
Royal Oak,MI,"Royal Oak, MI",-83.1446485,42.4894801
Royalton,MI,"Royalton, MI",-86.4288534,42.01289999999999
Rubicon,MI,"Rubicon, MI",-82.669947,43.9180906
Rush,MI,"Rush, MI",-84.20679919999999,43.0864176
Rutland,MI,"Rutland, MI",-85.37562489999999,42.6340542
Saginaw,MI,"Saginaw, MI",-83.9508068,43.4194699
Saginaw City,MI,"Saginaw City, MI",-83.9508068,43.4194699
Salem,MI,"Salem, MI",-83.6135572,42.3929212
Saline,MI,"Saline, MI",-83.7816075,42.1667072
Sand Beach,MI,"Sand Beach, MI",-82.669947,43.8040404
Sandstone,MI,"Sandstone, MI",-84.54318669999999,42.2839378
Sanilac,MI,"Sanilac, MI",-82.7347142,43.4069041
Saulte Ste. Marie,MI,"Saulte Ste. Marie, MI",-84.3453169,46.4952996
Schoocraft,MI,"Schoocraft, MI",-85.63777759999999,42.11421070000001
Scipio,MI,"Scipio, MI",-84.6583745,42.0431051
Sebewaing,MI,"Sebewaing, MI",-83.4510724,43.7322394
Seneca,MI,"Seneca, MI",-84.16461629999999,41.7518743
Seweba,MI,"Seweba, MI",-85.0025539,42.81342350000001
Sharon,MI,"Sharon, MI",-84.0801613,42.2216618
Shelby,MI,"Shelby, MI",-86.3639633,43.6086194
Sheridan,MI,"Sheridan, MI",-85.0736264,43.2122541
Sherman,MI,"Sherman, MI",-85.6967343,44.42389259999999
Sherwood,MI,"Sherwood, MI",-85.2385898,42.0014374
Shiawassee,MI,"Shiawassee, MI",-84.1857115,42.949754
Siddons,MI,"Siddons, MI",NA,NA
Silver Creek,MI,"Silver Creek, MI",-86.15482689999999,42.0337398
Solon,MI,"Solon, MI",-85.62292959999999,43.265245
Somerset,MI,"Somerset, MI",-84.41726659999999,42.0415105
South Haven,MI,"South Haven, MI",-86.2736407,42.4030865
Southfield,MI,"Southfield, MI",-83.2218731,42.4733688
Sparta,MI,"Sparta, MI",-85.71003929999999,43.1608578
Speaker,MI,"Speaker, MI",-82.80409829999999,43.2050252
Spring Arbor,MI,"Spring Arbor, MI",-84.55273869999999,42.2050383
Spring Lake,MI,"Spring Lake, MI",-86.19699709999999,43.07696250000001
Spring?,MI,"Spring?, MI",-86.19699709999999,43.07696250000001
Springfield,MI,"Springfield, MI",-85.2391614,42.3264298
Springport,MI,"Springport, MI",-84.6985883,42.378372
Springwells,MI,"Springwells, MI",-83.1273705,42.310882600000006
St. Charles,MI,"St. Charles, MI",-84.1428734,43.2994596
St. Clair,MI,"St. Clair, MI",-82.486024,42.8208653
St. Clair City,MI,"St. Clair City, MI",-82.486024,42.8208653
St. Ignace,MI,"St. Ignace, MI",-84.7322959,45.8755685
St. John's,MI,"St. John's, MI",-84.55915209999999,43.001143
St. Joseph,MI,"St. Joseph, MI",-86.4895463,42.0938577
Sterling,MI,"Sterling, MI",-84.02277169999999,44.0333538
Stockbridge,MI,"Stockbridge, MI",-84.1805146,42.4511466
Stronach,MI,"Stronach, MI",-86.15482689999999,44.2023126
Sturgis,MI,"Sturgis, MI",-85.41914820000001,41.799217
Summerfield,MI,"Summerfield, MI",-83.6986568,41.8461748
Summir,MI,"Summir, MI",-84.4592701,42.20124269999999
Sumner,MI,"Sumner, MI",-84.79420909999999,43.34625339999999
Sumpter,MI,"Sumpter, MI",-83.49413179999999,42.1388717
Sunfield,MI,"Sunfield, MI",-84.9924962,42.7622568
Superior,MI,"Superior, MI",-83.6051935,42.3010178
Sylvan,MI,"Sylvan, MI",-84.0801613,42.3002726
Tallmadge,MI,"Tallmadge, MI",-85.8336155,42.9918041
Taylor,MI,"Taylor, MI",-83.2696509,42.240872
Taymouth,MI,"Taymouth, MI",-83.8685072,43.26186269999999
Tecumseh,MI,"Tecumseh, MI",-83.9449417,42.0039331
Tekonsha,MI,"Tekonsha, MI",-84.985805,42.0933791
Texas,MI,"Texas, MI",-85.7051116,42.2152042
Thetford,MI,"Thetford, MI",-83.6561215,43.1731395
Thomastown,MI,"Thomastown, MI",-94.78924390000002,46.3630489
Thornapple,MI,"Thornapple, MI",-85.49941919999999,42.7170757
Three Oaks,MI,"Three Oaks, MI",-86.6105778,41.7986545
Three Rivers,MI,"Three Rivers, MI",-85.632493,41.9439368
Tittabawassee,MI,"Tittabawassee, MI",-84.1224036,43.5059061
Tompkins,MI,"Tompkins, MI",-84.54318669999999,42.3624962
Traverse,MI,"Traverse, MI",-85.62063169999999,44.7630567
Traverse City,MI,"Traverse City, MI",-85.62063169999999,44.7630567
Trowbridge,MI,"Trowbridge, MI",-85.8281458,42.45562839999999
Troy,MI,"Troy, MI",-83.1497751,42.6064095
Tuscola,MI,"Tuscola, MI",-83.5070203,43.5301144
Tyrone,MI,"Tyrone, MI",-83.7411631,42.7514541
Unadilla,MI,"Unadilla, MI",-84.0801613,42.4571439
Union,MI,"Union, MI",-85.8677756,41.7861603
Union City,MI,"Union City, MI",-85.1360882,42.0667135
Van Buren,MI,"Van Buren, MI",-83.4838244,42.2203171
Vanderbilt,MI,"Vanderbilt, MI",-84.6603091,45.14279030000001
Venice,MI,"Venice, MI",-83.99558789999999,42.9980947
Vermontville,MI,"Vermontville, MI",-85.0241621,42.6289247
Vernon,MI,"Vernon, MI",-84.02940819999999,42.9391971
Vevay,MI,"Vevay, MI",-84.42777029999999,42.5430524
Victor,MI,"Victor, MI",-84.41726659999999,42.9030536
Vienna,MI,"Vienna, MI",-83.7836403,43.180142
Volinia,MI,"Volinia, MI",-85.95089229999999,42.0267419
Wakeshma,MI,"Wakeshma, MI",-85.3342973,42.1218857
Wales,MI,"Wales, MI",-82.669947,42.9595339
Walker,MI,"Walker, MI",-85.7680915,43.0014133
Walton,MI,"Walton, MI",-84.87763919999999,42.4563588
Warren,MI,"Warren, MI",-83.01465259999999,42.5144566
Washington,MI,"Washington, MI",-83.05761559999999,42.7509332
Waterford,MI,"Waterford, MI",-83.4066132,42.6907443
Waterloo,MI,"Waterloo, MI",-84.106203,42.333587
Watertown,MI,"Watertown, MI",-84.6688348,42.7983871
Watervliet,MI,"Watervliet, MI",-86.26057759999999,42.1867052
Watson,MI,"Watson, MI",-85.7051116,42.5686411
Waverly,MI,"Waverly, MI",-84.6208149,42.7392017
Wayland,MI,"Wayland, MI",-85.6447438,42.6739208
Wayne,MI,"Wayne, MI",-83.3863214,42.2814269
Webster,MI,"Webster, MI",-83.8260884,42.3653661
Weesaw,MI,"Weesaw, MI",-86.51986509999999,41.847234
West Bloomfield,MI,"West Bloomfield, MI",-83.373339,42.5678534
Westphalia,MI,"Westphalia, MI",-84.798605,42.9294782
Wheatfield,MI,"Wheatfield, MI",-84.3331694,42.6263379
Wheatland,MI,"Wheatland, MI",-85.1271907,43.5914677
White Lake,MI,"White Lake, MI",-83.4856913,42.6592995
White Oak,MI,"White Oak, MI",-84.20679919999999,42.541875
White Pigeon,MI,"White Pigeon, MI",-85.6433229,41.7981056
White River,MI,"White River, MI",-86.0555093,43.503201
